"City","Country","Population","Latitude","Longitude"
"Andorra la Vella","AD",20430,42.5,1.5166667
"Canillo","AD",3292,42.5666667,1.6
"Encamp","AD",11224,42.5333333,1.5833333
"La Massana","AD",7211,42.55,1.5166667
"Les Escaldes","AD",15854,42.5,1.5333333
"Ordino","AD",2553,42.55,1.5333333
"Sant Julià de Lòria","AD",8020,42.4666667,1.5
"Abu Dhabi","AE",603687,24.466667,54.366667
"Dubai","AE",1137376,25.258172,55.304717
"Sharjah","AE",543942,25.35731,55.403304
"Acin","AF",15098,34.082481,70.668152
"Anar Darreh","AF",10023,32.758698,61.653969
"Andarab","AF",27034,35.633484,69.260195
"Asadabad","AF",48400,34.873113,71.14697
"Asmar","AF",15708,35.033328,71.358087
"Aybak","AF",47877,36.26468,68.015512
"Azrow","AF",12526,34.173553,69.645728
"Baglan","AF",108481,36.130684,68.708286
"Bagrami","AF",30256,34.493761,69.274274
"Baraki Barak","AF",22305,33.9675,68.948611
"Cah Ab","AF",23424,37.397734,69.814644
"Carikar","AF",53693,35.016585,69.174011
"Ciras","AF",12778,35.416737,65.982341
"Dawlatabad","AF",13603,36.432589,64.920713
"Dawlatabad","AF",17674,36.98782,66.82066
"Deh Rawud","AF",25683,32.624131,65.459659
"Eskasem","AF",12120,36.706932,71.570658
"Farah","AF",43574,32.374508,62.116383
"Gardan Diwal","AF",6815,34.508977,68.260739
"Gardez","AF",103732,33.597439,69.225922
"Gazni","AF",143049,33.550833,68.4225
"Geresk","AF",43638,31.820894,64.570048
"Herat","AF",272880,34.348167,62.199673
"Jalalabad","AF",200389,34.426468,70.45153
"Jurm","AF",12121,36.864768,70.834207
"Kabul","AF",3043589,34.516667,69.183333
"Kholm","AF",64954,36.697362,67.698255
"Khowst","AF",96246,33.339512,69.92041
"Kuhestan","AF",12087,34.653889,61.197778
"Kusk","AF",16952,33.29565,61.952206
"Lar Gerd","AF",11635,35.489361,66.664088
"Mehtar Lam","AF",17350,34.671389,70.209444
"Mirabad","AF",14160,30.436244,61.838304
"Nahrin","AF",22389,36.064904,69.13343
"Nuristan","AF",17072,34.95,70.4
"Orgun","AF",10665,32.901111,69.152798
"Pagman","AF",49173,34.5875,68.953333
"Panjab","AF",13471,34.387949,67.023273
"Qandahar","AF",391230,31.613323,65.710126
"Qarchi Gak","AF",8942,37.039988,66.788912
"Qarqin","AF",15023,37.404464,66.074375
"Qunduz","AF",161943,36.728955,68.857001
"Rostaq","AF",25644,37.126035,69.83045
"Rudbar","AF",11034,30.15,62.6
"Sahrak","AF",15967,34.107375,64.305199
"Sangin","AF",13579,32.072752,64.835903
"Sar-e Pul","AF",52138,36.215443,65.932487
"Sharan","AF",7368,33.146667,68.791667
"Shibarghan","AF",55658,36.667567,65.752904
"Sindand","AF",29273,33.302944,62.1474
"Tagab","AF",6400,34.855007,69.64917
"Taloqan","AF",64275,36.734133,69.533559
"Taywarah","AF",14398,33.521176,64.421156
"Tir Pol","AF",6979,34.594307,61.268951
"Tokzar","AF",12021,35.948308,66.42132
"Uruzgan","AF",13400,32.927751,66.632534
"Zaranj","AF",33894,30.966667,61.883333
"All Saints","AG",2526,17.05,-61.8
"Carlisle","AG",831,17.1333333,-61.8
"Codrington","AG",682,17.6333333,-61.8333333
"Freetown","AG",623,17.05,-61.7
"Liberta","AG",1668,17.0333333,-61.7833333
"Old Road","AG",623,17.0166667,-61.8333333
"Parham","AG",969,17.0833333,-61.7666667
"Swetes","AG",727,17.05,-61.8
"The Valley","AI",1379,18.2166667,-63.05
"Bajram Curri","AL",7967,42.3572222,20.0730556
"Ballsh","AL",10361,40.5988889,19.7347222
"Berat","AL",47606,40.7058333,19.9522222
"Bilisht","AL",7114,40.6275,20.99
"Bulqizë","AL",11212,41.4916667,20.2219444
"Burrel","AL",15539,41.6102778,20.0088889
"Cërrik","AL",14269,41.0316667,19.9758333
"Çorovodë","AL",14046,40.5041667,20.2272222
"Delvinë","AL",3916,39.9511111,20.0977778
"Durrës","AL",122034,41.3230556,19.4413889
"Elbasan","AL",100903,41.1125,20.0822222
"Ersekë","AL",7890,40.3377778,20.6788889
"Fier","AL",59719,40.7238889,19.5561111
"Fierzë","AL",742,42.2647222,20.0269444
"Fierzë","AL",742,42.2605556,20.0169444
"Fushë-Arrëz","AL",2438,42.0622222,20.0166667
"Fushë-Krujë","AL",10458,41.4783333,19.7177778
"Gjirokastër","AL",23437,40.0758333,20.1388889
"Gramsh","AL",11556,40.8697222,20.1844444
"Himarë","AL",4596,40.1016667,19.7447222
"Kamzë","AL",11026,41.3816667,19.7602778
"Kavajë","AL",29354,41.1855556,19.5569444
"Këlcyrë","AL",2486,40.3130556,20.1894444
"Kërrabë","AL",1177,41.2155556,19.9713889
"Klos","AL",683,41.4844444,20.1080556
"Konispol","AL",1349,39.6588889,20.1813889
"Koplik","AL",4078,42.2136111,19.4363889
"Korçë","AL",58259,40.6186111,20.7808333
"Krastë","AL",1168,41.4225,20.205
"Krujë","AL",21286,41.5091667,19.7927778
"Kuçovë","AL",18166,40.8002778,19.9166667
"Kukës","AL",17972,42.0769444,20.4219444
"Kurbnesh","AL",1429,41.7797222,20.0836111
"Laç","AL",24825,41.6355556,19.7130556
"Leskovik","AL",2655,40.1513889,20.5972222
"Lezhë","AL",18695,41.7836111,19.6436111
"Libohovë","AL",3651,40.0311111,20.2630556
"Librazhd","AL",12691,41.1794444,20.315
"Lushnjë","AL",41423,40.9419444,19.705
"Maliq","AL",3735,40.7058333,20.6997222
"Mamurras","AL",8282,41.5775,19.6922222
"Memaliaj","AL",4951,40.3458333,19.9791667
"Milot","AL",2157,41.6802778,19.7244444
"Orikum","AL",2604,40.3252778,19.4713889
"Patos","AL",22679,40.6833333,19.6194444
"Peqin","AL",7513,41.0461111,19.7511111
"Përmet","AL",10686,40.2336111,20.3516667
"Përrenjas","AL",4015,41.0730556,20.5488889
"Peshkopi","AL",15261,41.685,20.4288889
"Pogradec","AL",25758,40.9025,20.6525
"Poliçan","AL",10663,40.6122222,20.0980556
"Pukë","AL",6495,42.0444444,19.8997222
"Roskovec","AL",6657,40.7375,19.7022222
"Rrëshen","AL",10064,41.7675,19.8755556
"Rrogozhinë","AL",5620,41.0763889,19.6652778
"Rubik","AL",2332,41.7744444,19.7861111
"Sarandë","AL",15147,39.8755556,20.0052778
"Selenicë","AL",6912,40.5305556,19.6358333
"Shëngjin","AL",2698,41.8136111,19.5938889
"Shijak","AL",14138,41.3455556,19.5672222
"Shkodër","AL",89102,42.0675,19.5130556
"Tepelenë","AL",11955,40.2958333,20.0191667
"Tirana","AL",374801,41.3275,19.8188889
"Ulzë","AL",600,41.6827778,19.8933333
"Vlorë","AL",89528,40.4666667,19.4897222
"Vorë","AL",4973,41.3908333,19.655
"Abovyan","AM",1379,40.0488889,44.5475
"Abovyan","AM",35677,40.2691667,44.6244444
"Agarakadzor","AM",1195,39.7363889,45.3455556
"Agarak","AM",1575,40.3077778,44.2847222
"Agarak","AM",1278,41.0105556,44.4675
"Agarak","AM",4707,39.2038889,46.5472222
"Aghavnadzor","AM",1252,40.5841667,44.6913889
"Aghavnadzor","AM",1925,39.7836111,45.2280556
"Aghavnatun","AM",2913,40.2336111,44.2513889
"Akhuryan","AM",7672,40.7813889,43.8963889
"Aknalich","AM",2654,40.1430556,44.1483333
"Aknashen","AM",1362,40.0958333,44.2861111
"Alaverdi","AM",13186,41.1305556,44.6519444
"Amasia","AM",1675,40.9466667,43.7813889
"Amberd","AM",1267,40.2416667,44.2727778
"Anushavan","AM",1532,40.6419444,43.9822222
"Apaga","AM",1634,40.0961111,44.2511111
"Aparan","AM",5670,40.5961111,44.3536111
"Aragats","AM",2952,40.3330556,43.6580556
"Aragats","AM",5092,40.2183333,44.2327778
"Aragyukh","AM",999,40.4025,44.5436111
"Aramus","AM",3214,40.2511111,44.6630556
"Arapi","AM",1738,40.7797222,43.8005556
"Ararat","AM",6554,39.8094444,44.7144444
"Arazap","AM",1373,40.0427778,44.1458333
"Archis","AM",1235,41.1641667,44.8725
"Areni","AM",1718,39.7208333,45.1838889
"Arevabuyr","AM",1041,40.0361111,44.4688889
"Arevashat","AM",1403,40.1416667,44.3708333
"Arevashogh","AM",2435,40.8613889,44.2727778
"Arevik","AM",2455,40.1005556,44.0969444
"Arevik","AM",1522,40.7361111,43.8927778
"Arevshat","AM",2089,40.0391667,44.5416667
"Arevshat","AM",1623,40.6486111,44.0444444
"Argavand","AM",1703,40.1580556,44.44
"Argavand","AM",2047,40.0608333,44.0952778
"Argel","AM",2528,40.3794444,44.5994444
"Armash","AM",2434,39.7666667,44.8083333
"Armavir","AM",2752,40.0897222,44.0483333
"Arshaluys","AM",3808,40.1688889,44.2141667
"Artashat","AM",20562,39.9538889,44.5505556
"Arteni","AM",3086,40.2983333,43.7541667
"Artimet","AM",1501,40.1513889,44.2663889
"Artsvaberd","AM",3193,40.8336111,45.4711111
"Artsvanist","AM",2819,40.1544444,45.5022222
"Arzakan","AM",2660,40.4494444,44.6063889
"Arzni","AM",2244,40.2963889,44.5958333
"Ashnak","AM",1131,40.3275,43.9166667
"Ashtarak","AM",18779,40.3016667,44.3591667
"Astghadzor","AM",3520,40.1238889,45.3566667
"Avshar","AM",4215,39.8405556,44.6836111
"Aygavan","AM",3758,39.8647222,44.6702778
"Aygedzor","AM",2535,39.4627778,46.4152778
"Aygehovit","AM",2888,40.9744444,45.2519444
"Aygek","AM",1095,40.1886111,44.3833333
"Aygepat","AM",1349,39.95,44.6
"Aygeshat","AM",1358,40.2355556,44.2866667
"Aygeshat","AM",1606,40.0666667,44.0666667
"Aygestan","AM",2431,40.0030556,44.5575
"Aygezard","AM",3192,39.9458333,44.6088889
"Aygut","AM",997,40.6841667,45.1730556
"Ayrum","AM",2174,41.195,44.8925
"Ayrum","AM",2174,41.1716667,44.8191667
"Azatamut","AM",1850,40.9758333,45.1980556
"Azatan","AM",4448,40.7238889,43.8205556
"Azatavan","AM",2886,39.9833333,44.5
"Azatavan","AM",2886,40.1333333,44.0666667
"Baghramyan","AM",1690,40.1908333,43.8494444
"Bagratashen","AM",3024,41.2458333,44.8211111
"Balahovit","AM",2982,40.2536111,44.6038889
"Bambakashat","AM",3089,40.1144444,44.0122222
"Bardzrashen","AM",1273,40.0852778,44.5786111
"Bazum","AM",1114,40.8680556,44.4455556
"Berdavan","AM",3150,41.2027778,45.0033333
"Berd","AM",8374,40.8808333,45.3916667
"Brnakot","AM",1912,39.4969444,45.9730556
"Brun","AM",1028,39.5338889,46.3030556
"Buzhakan","AM",1678,40.4552778,44.5205556
"Byurakan","AM",3902,40.3413889,44.2736111
"Byuravan","AM",1228,40.0161111,44.5186111
"Byureghavan","AM",6972,40.3147222,44.5936111
"Chambarak","AM",6153,40.5952778,45.3475
"Chochkan","AM",1740,41.1861111,44.8313889
"Dalar","AM",2504,39.9669444,44.5363889
"Dalarik","AM",3080,40.2183333,43.8602778
"Darakert","AM",2325,40.1058333,44.4138889
"Darpas","AM",1785,40.8380556,44.4233333
"Dashtavan","AM",1762,40.1016667,44.3905556
"Ddmashen","AM",2157,40.5719444,44.8122222
"Dilijan","AM",13480,40.7408333,44.8630556
"Dimitrov","AM",1212,40.0080556,44.4880556
"Doghs","AM",1186,40.2227778,44.2716667
"Drakhtik","AM",1016,40.5688889,45.2319444
"Dsegh","AM",2484,40.9633333,44.6516667
"Dvin","AM",2795,40.02,44.5852778
"Dzitankov","AM",1162,40.5155556,43.8133333
"Dzoraghbyur","AM",2011,40.205,44.6430556
"Dzoragyukh","AM",3570,40.1752778,45.175
"Fantan","AM",1019,40.3941667,44.685
"Fioletovo","AM",1264,40.7247222,44.7138889
"Gagarin","AM",1305,40.5369444,44.8577778
"Gandzak","AM",3841,40.3147222,45.1113889
"Garni","AM",6827,40.1194444,44.7230556
"Gavar","AM",21681,40.3588889,45.1266667
"Gay","AM",3309,40.0838889,44.3055556
"Geghamasar","AM",1060,40.3116667,45.68
"Geghamavan","AM",1597,40.5619444,44.8827778
"Geghanist","AM",2409,40.1497222,44.4344444
"Getahovit","AM",2005,40.8958333,45.1313889
"Getashen","AM",2114,40.0433333,43.9447222
"Getazat","AM",1947,40.0380556,44.5638889
"Ghukasavan","AM",2113,40.1261111,44.4177778
"Gladzor","AM",2080,39.7783333,45.3477778
"Gogaran","AM",1088,40.8955556,44.1991667
"Goris","AM",20379,39.5077778,46.3386111
"Gosh","AM",994,40.7225,45.0033333
"Griboyedov","AM",1879,40.1130556,44.2716667
"Gyulagarak","AM",2109,40.9697222,44.4713889
"Gyumri","AM",148383,40.7894444,43.8475
"Haghartsin","AM",3370,40.7780556,44.9625
"Hayanist","AM",2031,40.1197222,44.3775
"Haykashen","AM",1140,40.0727778,44.3069444
"Haykavan","AM",1201,40.7558333,43.77
"Hnaberd","AM",1817,40.6427778,44.1444444
"Hoktember","AM",5348,40.1361111,44.0138889
"Horom","AM",1893,40.6541667,43.8822222
"Hovtashat","AM",3472,40.1019444,44.3427778
"Hovtashen","AM",1134,40.0244444,44.45
"Hrazdan","AM",40796,40.5016667,44.7547222
"Ijevan","AM",14737,40.8755556,45.1491667
"Janfida","AM",2986,40.0455556,44.0208333
"Jermuk","AM",4582,39.8416667,45.6722222
"Jrahovit","AM",1032,40.0452778,44.4736111
"Jrashen","AM",3078,40.7875,44.1972222
"Jrashen","AM",1696,40.0547222,44.5133333
"Kamaris","AM",2064,40.2358333,44.6938889
"Kamo","AM",1340,40.8280556,43.9483333
"Kanakeravan","AM",2950,40.2472222,44.5366667
"Kapan","AM",33161,39.2011111,46.415
"Kaputan","AM",1252,40.3244444,44.6938889
"Karbi","AM",3521,40.3338889,44.3777778
"Karchaghbyur","AM",2274,40.1638889,45.5722222
"Kasakh","AM",4247,40.5333333,44.4166667
"Khashtarak","AM",1728,40.9386111,45.1797222
"Khndzoresk","AM",1940,39.5122222,46.4336111
"Kosh","AM",2581,40.3072222,44.16
"Lanjaghbyur","AM",2097,40.2730556,45.1444444
"Lchashen","AM",4182,40.5202778,44.9308333
"Lenughi","AM",1499,40.1238889,43.9652778
"Lernakert","AM",1306,40.5669444,43.9361111
"Lernanist","AM",2511,40.4675,44.7980556
"Lernantsk","AM",1192,40.7955556,44.2783333
"Lernapat","AM",1710,40.82,44.3972222
"Lernavan","AM",1517,40.7883333,44.1844444
"Lorut","AM",1101,40.9388889,44.7725
"Lukashin","AM",2197,40.1758333,44.0186111
"Madina","AM",1024,40.0802778,45.2511111
"Maisyan","AM",1521,40.8530556,43.8294444
"Malishka","AM",4174,39.7369444,45.3875
"Maralik","AM",4959,40.5722222,43.8669444
"Margahovit","AM",3308,40.7380556,44.6875
"Margara","AM",1360,40.0336111,44.1738889
"Marmarashen","AM",2946,40.0575,44.4711111
"Marmashen","AM",1644,40.8375,43.7719444
"Martuni","AM",11037,40.1447222,45.3063889
"Masis","AM",18911,40.0138889,44.4858333
"Mayakovski","AM",1727,40.2522222,44.6383333
"Meghradzor","AM",2659,40.6147222,44.6522222
"Meghrashen","AM",1107,40.6758333,43.9486111
"Meghri","AM",4540,38.9022222,46.2383333
"Merdzavan","AM",2702,40.1816667,44.3991667
"Metsamor","AM",8789,40.0713889,44.2891667
"Metsavan","AM",4767,41.2016667,44.2288889
"Mets Masrik","AM",2570,40.2186111,45.7694444
"Mets Parni","AM",1934,40.8372222,44.1091667
"Mosesgegh","AM",1964,40.9063889,45.4913889
"Mrganush","AM",1032,40.0286111,44.5586111
"Mrgashat","AM",4961,40.1297222,44.0705556
"Mrgashen","AM",1623,40.285,44.5422222
"Mrgavan","AM",1713,39.9661111,44.5333333
"Mrgavet","AM",2131,40.0283333,44.4827778
"Musaler","AM",2323,40.1544444,44.3777778
"Musayelyan","AM",1499,40.7652778,43.9908333
"Myasnikyan","AM",3458,40.1775,43.9063889
"Nalbandyan","AM",4019,40.0677778,43.9855556
"Navur","AM",1227,40.8613889,45.3175
"Nizami","AM",1060,40.0913889,44.4041667
"Norakert","AM",2485,40.1922222,44.3466667
"Noramarg","AM",1811,40.0236111,44.4244444
"Nor Armavir","AM",1597,40.0866667,43.99
"Norashen","AM",3049,40.0041667,44.5947222
"Norashen","AM",1386,41.1880556,44.3272222
"Noratus","AM",5426,40.3822222,45.1783333
"Nor Geghi","AM",4896,40.3211111,44.5797222
"Nor Gyukh","AM",1462,40.2666667,44.6563889
"Nor Yerznka","AM",1459,40.3133333,44.4047222
"Noyakert","AM",1751,39.8166667,44.6669444
"Noyemberyan","AM",5119,41.1725,44.9936111
"Nshavan","AM",1916,40.0263889,44.5252778
"Odzun","AM",4524,41.0538889,44.6113889
"Oshakan","AM",4768,40.2705556,44.2691667
"Paravakar","AM",1637,40.9805556,45.3991667
"Pemzashen","AM",2436,40.5933333,43.94
"Pokr Mantash","AM",1838,40.65,44.05
"Proshyan","AM",4333,40.2480556,44.415
"Pshatavan","AM",2159,40.0405556,44.0675
"Ptghni","AM",1231,40.2566667,44.585
"Ranchpar","AM",989,40.0252778,44.3702778
"Rind","AM",1368,39.7597222,45.18
"Samaghar","AM",2343,40.1852778,44.2422222
"Saramech","AM",1111,40.7725,44.2191667
"Saratak","AM",1115,40.67,43.8663889
"Sarigyukh","AM",1096,41.0563889,45.1458333
"Sarukhan","AM",6173,40.2891667,45.1341667
"Sasunik","AM",1959,40.2472222,44.3380556
"Sevan","AM",17083,40.555,44.9536111
"Shaghat","AM",1011,39.5616667,45.9122222
"Shahumyan","AM",3905,39.9308333,44.5783333
"Shahumyan","AM",1843,40.7883333,44.5316667
"Shatin","AM",1671,39.8333333,45.3016667
"Shenavan","AM",1587,40.4861111,44.3825
"Shenavan","AM",1757,40.05,43.9333333
"Shinuhayr","AM",2206,39.4341667,46.3155556
"Shirakamut","AM",2008,40.8605556,44.1527778
"Shirak","AM",1007,40.8480556,43.9213889
"Shnogh","AM",2872,41.1477778,44.8377778
"Sisavan","AM",1793,39.9,44.6666667
"Sisian","AM",15208,39.4627778,45.9730556
"Sis","AM",1135,40.0586111,44.3863889
"Solak","AM",2295,40.4636111,44.7086111
"Sovetakan","AM",1613,40.1133333,44.0552778
"Spandaryan","AM",1226,40.665,44.0188889
"Spitak","AM",15063,40.7955556,44.2783333
"Surenavan","AM",2241,39.75,44.8
"Talin","AM",4945,40.3369444,43.8588889
"Tandzut","AM",1816,40.0772222,44.0886111
"Taronik","AM",1874,40.1330556,44.1991667
"Tashir","AM",7318,41.1244444,44.2819444
"Tazagyukh","AM",2248,40.1416667,45.1913889
"Tegh","AM",2120,39.5547222,46.4758333
"Tsaghkaber","AM",1207,40.7986111,44.1072222
"Tsaghkadzor","AM",1408,40.5386111,44.7113889
"Tsaghkahovit","AM",1551,40.6361111,44.2230556
"Tsiatsan","AM",1050,40.1869444,44.2666667
"Tsovagyugh","AM",3857,40.6330556,44.9522222
"Tsovak","AM",2531,40.1819444,45.635
"Tsovazard","AM",1949,40.4769444,45.0375
"Tsovinar","AM",3968,40.1608333,45.4538889
"Tumanyan","AM",1693,40.9633333,44.6516667
"Urut","AM",1102,41.0711111,44.3969444
"Ushi","AM",1276,40.3536111,44.3686111
"Vagharshapat","AM",49514,40.1727778,44.2925
"Vaghashen","AM",3235,40.1377778,45.3291667
"Vahagni","AM",1184,40.9080556,44.6069444
"Vahan","AM",1153,40.57,45.3955556
"Vanadzor","AM",101099,40.8127778,44.4883333
"Vardablur","AM",1297,40.95,44.4666667
"Vardadzor","AM",2095,40.1916667,45.1875
"Vardenik","AM",7709,40.135,45.4363889
"Vardenis","AM",11382,40.1805556,45.7283333
"Varser","AM",1614,40.5561111,44.9111111
"Vedi","AM",12192,39.9105556,44.7277778
"Verin Artashat","AM",3931,40.0005556,44.585
"Verin Dvin","AM",1853,40.0252778,44.5908333
"Verin Getashen","AM",4173,40.1327778,45.2486111
"Verishen","AM",2114,39.5358333,46.3119444
"Vernashen","AM",1162,39.7938889,45.3633333
"Voskehask","AM",1803,40.7383333,43.7758333
"Voskehat","AM",2181,40.1413889,44.3291667
"Voskevan","AM",1287,41.1191667,45.0652778
"Voskevaz","AM",3789,40.2797222,44.295
"Vostan","AM",2925,39.9588889,44.5591667
"Yeghegnavan","AM",1221,39.8277778,44.6372222
"Yeghegnut","AM",1746,40.0902778,44.1625
"Yeghegnut","AM",1154,40.9041667,44.6325
"Yeghvard","AM",10705,40.3216667,44.4813889
"Yeraskhahun","AM",1346,40.0722222,44.2158333
"Yerazgavors","AM",1285,40.7,43.75
"Yerevan","AM",1093499,40.1811111,44.5136111
"Zangakatun","AM",1130,39.8094444,45.0511111
"Zaritap","AM",1323,39.6372222,45.5086111
"Zar","AM",1340,40.2611111,44.7361111
"Zhdanov","AM",1512,40.1616667,44.0883333
"Zorak","AM",1390,40.0925,44.3919444
"Zoravan","AM",1167,40.3569444,44.5230556
"Zovaber","AM",1470,40.5736111,44.7863889
"Zovuni","AM",4484,40.5108333,44.4288889
"Barber","AN",2424,12.2833333,-69.0666667
"Golden Rock","AN",823,17.4833333,-62.9833333
"Hato","AN",13,12.1833333,-68.2833333
"Kralendijk","AN",3081,12.15,-68.2666667
"Lagún","AN",289,12.3166667,-69.1666667
"Nieuwpoort","AN",1937,12.05,-68.8166667
"Oranjestad","AN",1097,17.4666667,-62.9833333
"Rincón","AN",1496,12.2333333,-68.3333333
"Sint Michiel","AN",5138,12.1333333,-68.9833333
"Soto","AN",1987,12.2666667,-69.1
"The Bottom","AN",488,17.6333333,-63.25
"Westpunt","AN",783,12.3666667,-69.1666667
"Willemstad","AN",97590,12.1,-68.9166667
"Windward Side","AN",442,17.6333333,-63.2333333
"Benguela","AO",151235,-12.578333,13.407222
"Caála","AO",21205,-12.8525,15.560556
"Cabinda","AO",66020,-5.55,12.2
"Caconda","AO",10551,-13.733333,15.066667
"Caluquembe","AO",30305,-13.783333,14.683333
"Camabatela","AO",12839,-8.18812,15.37495
"Camacupa","AO",19150,-12.016667,17.483333
"Catabola","AO",18858,-12.15,17.283333
"Catumbela","AO",16980,-12.431389,13.547222
"Caxito","AO",28229,-8.58,13.664167
"Cazaje","AO",4764,-11.067147,20.701483
"Chissamba","AO",7677,-12.166667,17.333333
"Huambo","AO",226177,-12.776111,15.739167
"Kibala","AO",8915,-10.73366,14.979949
"Kuito","AO",113624,-12.383333,16.933333
"Leúa","AO",5168,-11.65,20.45
"Lobito","AO",207957,-12.319722,13.599722
"Longonjo","AO",24350,-12.906667,15.253333
"Luanda","AO",2776125,-8.836804,13.233174
"Luau","AO",18465,-10.707273,22.22466
"Lubango","AO",102541,-14.916667,13.5
"Lucapa","AO",20115,-8.419151,20.744655
"Luena","AO",21115,-11.783333,19.916667
"Lumeje","AO",4972,-11.55,20.783333
"Malanje","AO",87047,-9.544722,16.345278
"Menongue","AO",19141,-14.661639,17.688224
"Namibe","AO",80150,-15.196111,12.152222
"Ondjiva","AO",10169,-17.066667,15.733333
"Saurimo","AO",40498,-9.66078,20.391553
"Soyo","AO",67553,-6.134903,12.368935
"Sumbe","AO",33278,-11.206048,13.843713
"Uíge","AO",60008,-7.613282,15.056621
"Alta Gracia","AR",40385,-31.652925,-64.428259
"Azul","AR",52333,-36.776976,-59.858539
"Bahia Blanca","AR",282950,-38.719595,-62.272432
"Bell Ville","AR",35106,-32.625906,-62.68873
"Campana","AR",83175,-34.168742,-58.95914
"Catamarca","AR",213601,-28.469574,-65.785239
"Chacabuco","AR",34587,-34.641667,-60.473889
"Chivilcoy","AR",52307,-34.895661,-60.016667
"Comodoro Rivadavia","AR",142597,-45.864135,-67.496558
"Concepcion del Uruguay","AR",72904,-32.482493,-58.237217
"Concordia","AR",155686,-31.392959,-58.02089
"Cordoba","AR",1441007,-31.413496,-64.181052
"Corrientes","AR",390481,-27.480596,-58.834099
"Dolores","AR",25190,-36.313215,-57.679185
"Eldorado","AR",62823,-26.404841,-54.624784
"Formosa","AR",248756,-26.177534,-58.178139
"General Pico","AR",55900,-35.656622,-63.756815
"General Roca","AR",76066,-39.02797,-67.573711
"Goya","AR",70340,-29.14003,-59.262564
"Gualeguaychu","AR",88218,-33.009375,-58.51722
"Gualeguay","AR",33120,-33.141559,-59.309657
"Jujuy","AR",277150,-24.194565,-65.297116
"Junin","AR",76369,-34.583816,-60.943318
"La Plata","AR",684318,-34.921454,-57.954533
"La Rioja","AR",178497,-29.411048,-66.850668
"Libertador General San Martin","AR",49273,-23.806443,-64.787574
"Lincoln","AR",24798,-34.866494,-61.530197
"Lujan","AR",74823,-34.570278,-59.105
"Lujan","AR",77625,-33.035471,-68.877823
"Mar del Plata","AR",645771,-38.002278,-57.557539
"Mendoza","AR",973047,-32.890845,-68.827171
"Mercedes","AR",49067,-34.651455,-59.430676
"Mercedes","AR",30649,-29.181858,-58.078951
"Mercedes","AR",126559,-33.674359,-65.461405
"Necochea","AR",84969,-38.547259,-58.736753
"Neuquen","AR",359037,-38.951606,-68.059102
"Nueve de Julio","AR",34717,-35.444374,-60.883131
"Obera","AR",58939,-27.487059,-55.11994
"Olavarria","AR",80005,-36.892715,-60.32254
"Parana","AR",299257,-31.731967,-60.523802
"Pergamino","AR",86708,-33.889949,-60.573568
"Posadas","AR",313438,-27.367077,-55.896078
"Presidencia Roque Saenz Pena","AR",89584,-26.785221,-60.438761
"Puerto Madryn","AR",95547,-42.769201,-65.038513
"Punta Alta","AR",53117,-38.875875,-62.073589
"Rafaela","AR",84025,-31.250332,-61.486696
"Rawson","AR",26341,-43.300158,-65.10228
"Reconquista","AR",95979,-29.15,-59.65
"Resistencia","AR",406967,-27.46056,-58.983886
"Rio Cuarto","AR",174058,-33.130671,-64.349918
"Rio Gallegos","AR",93234,-51.622613,-69.218127
"Rio Tercero","AR",53396,-32.173008,-64.114055
"Rivadavia","AR",65641,-33.190509,-68.46081
"Rosario","AR",1218497,-32.946818,-60.639317
"Salta","AR",548288,-24.785896,-65.411664
"San Carlos de Bariloche","AR",110044,-41.140293,-71.301369
"San Francisco","AR",71444,-31.427971,-62.082656
"San Juan","AR",469958,-31.5375,-68.536389
"San Lorenzo","AR",47627,-28.133061,-58.767331
"San Luis","AR",184869,-33.295012,-66.335627
"San Martin","AR",107554,-33.081031,-68.468138
"San Nicolas","AR",130705,-33.335784,-60.225233
"San Pedro","AR",67514,-33.679127,-59.666635
"San Pedro","AR",43124,-24.231266,-64.866141
"San Rafael","AR",125033,-34.617717,-68.330066
"San Ramon de la Nueva Oran","AR",84504,-23.13398,-64.324645
"Santa Fe","AR",456044,-31.629484,-60.701036
"Santa Rosa","AR",89478,-36.616667,-64.283333
"Santiago del Estero","AR",407636,-27.795112,-64.261489
"San Vicente","AR",84333,-34.982645,-58.376169
"Tandil","AR",100127,-37.321674,-59.133164
"Tartagal","AR",63600,-22.516365,-63.801314
"Trelew","AR",107883,-43.250075,-65.313295
"Tres Arroyos","AR",47143,-38.373939,-60.279781
"Tucuman","AR",828402,-26.824144,-65.2226
"Ushuaia","AR",58045,-54.8,-68.3
"Veinticinco de Mayo","AR",24668,-35.432303,-60.172707
"Venado Tuerto","AR",71794,-33.745564,-61.968845
"Victoria","AR",25139,-32.619888,-60.153907
"Viedma","AR",76553,-40.813452,-62.996676
"Villa Carlos Paz","AR",61095,-31.424138,-64.497778
"Villa Constitucion","AR",44278,-33.227778,-60.329699
"Villa Maria","AR",92337,-32.407514,-63.240161
"Zarate","AR",88222,-34.098142,-59.028585
"Absam","AT",6594,47.3,11.5
"Abtenau","AT",5829,47.55,13.35
"Altach","AT",6040,47.35,9.65
"Althofen","AT",4833,47.15,14.233333
"Altmunster","AT",9652,47.9,13.75
"Amstetten","AT",22832,48.116667,14.866667
"Anif","AT",4154,47.75,13.066667
"Ansfelden","AT",14936,48.2,14.283333
"Arnoldstein","AT",6923,46.546111,13.71
"Asten","AT",6517,48.216667,14.4
"Axams","AT",5560,47.233333,11.3
"Bad Aussee","AT",5210,47.6,13.783333
"Baden","AT",24893,48.016667,16.233333
"Bad Goisern","AT",7869,47.633333,13.616667
"Bad Hall","AT",4935,48.033333,14.2
"Bad Hofgastein","AT",7002,47.166667,13.1
"Bad Ischl","AT",14267,47.716667,13.616667
"Bad Sankt Leonhard","AT",4775,46.962778,14.791667
"Bad Voslau","AT",11013,47.966667,16.2
"Barnbach","AT",4850,46.983333,16.05
"Bergheim","AT",5031,47.833333,13.033333
"Berndorf","AT",8796,47.95,16.1
"Bischofshofen","AT",10145,47.416667,13.216667
"Bludenz","AT",13904,47.149722,9.816667
"Braunau","AT",16403,48.266667,13.033333
"Bregenz","AT",26928,47.5,9.766667
"Bruck an der Leitha","AT",7339,48.016667,16.766667
"Bruck an der Mur","AT",13254,47.416667,15.283333
"Deutschlandsberg","AT",8049,46.815278,15.222222
"Deutsch-Wagram","AT",7153,48.299722,16.566667
"Dornbirn","AT",43013,47.416667,9.733056
"Ebbs","AT",5088,47.633333,12.216667
"Ebensee","AT",8376,47.8,13.766667
"Ebenthal","AT",7809,46.608056,14.364167
"Eberndorf","AT",6089,46.591389,14.643611
"Ebreichsdorf","AT",9509,47.95,16.4
"Eisenerz","AT",5987,47.533333,14.883333
"Eisenstadt","AT",11767,47.85,16.516667
"Engerwitzdorf","AT",8510,48.35,14.45
"Enns","AT",10816,48.2,14.466667
"Feldbach","AT",4877,46.953056,15.888333
"Feldkirchen an der Donau","AT",5286,48.35,14.05
"Feldkirchen","AT",14440,46.716667,14.1
"Feldkirch","AT",29446,47.233056,9.6
"Ferlach","AT",7661,46.526944,14.301944
"Finkenstein","AT",8406,46.565556,13.865278
"Fohnsdorf","AT",8203,47.2,14.683333
"Frankenburg","AT",5162,48.066667,13.483333
"Freistadt","AT",7574,48.5,14.5
"Friesach","AT",5369,46.955278,14.405833
"Frohnleiten","AT",6629,47.266667,15.316667
"Fugen","AT",3734,47.35,11.85
"Furstenfeld","AT",5962,47.05,16.083333
"Gallneukirchen","AT",6282,48.35,14.416667
"Ganserndorf","AT",8588,48.35,16.733333
"Garsten","AT",6657,48.016667,14.4
"Gleisdorf","AT",5245,47.1,15.716667
"Gloggnitz","AT",6213,47.666667,15.933333
"Gmunden","AT",13287,47.916667,13.8
"Gmund","AT",5811,48.766667,14.983333
"Gotzis","AT",10342,47.333056,9.633056
"Gratkorn","AT",6806,47.133333,15.35
"Graz","AT",222326,47.066667,15.45
"Grieskirchen","AT",4766,48.233333,13.833333
"Grodig","AT",6918,47.733333,13.033333
"Guntramsdorf","AT",9071,48.033333,16.3
"Haag","AT",5164,48.15,15.5
"Hainburg","AT",5622,48.15,16.933333
"Hallein","AT",18980,47.683333,13.1
"Hall","AT",11197,47.6,14.45
"Hard","AT",11766,47.483056,9.683056
"Heidenreichstein","AT",4472,48.866667,15.116667
"Hermagor","AT",7242,46.627222,13.367222
"Herzogenburg","AT",7866,48.266667,15.683333
"Himberg","AT",5534,48.083333,16.433333
"Hochst","AT",7207,47.466667,9.633056
"Hohenems","AT",14072,47.366667,9.683056
"Hollabrunn","AT",10966,48.55,16.083333
"Hopfgarten","AT",5314,47.45,12.166667
"Horbranz","AT",6414,47.55,9.75
"Horn","AT",6485,48.65,15.65
"Horsching","AT",5312,48.233333,14.183333
"Imst","AT",9225,47.233333,10.733333
"Innsbruck","AT",112467,47.266667,11.4
"Jenbach","AT",6806,47.4,11.783333
"Jennersdorf","AT",4319,46.939167,16.146667
"Judenburg","AT",9992,47.166667,14.666667
"Kapfenberg","AT",21819,47.433333,15.3
"Kindberg","AT",5790,47.5,15.45
"Kirchbichl","AT",5115,47.516667,12.083333
"Kitzbuhel","AT",8818,47.45,12.383333
"Klagenfurt","AT",90610,46.624722,14.305278
"Klosterneuburg","AT",24843,48.3,16.316667
"Knittelfeld","AT",12704,47.216667,14.816667
"Koflach","AT",10447,47.066667,15.083333
"Korneuburg","AT",11498,48.35,16.333333
"Kottingbrunn","AT",7184,47.95,16.216667
"Krems","AT",24092,48.416667,15.6
"Kremsmunster","AT",6626,48.05,14.133333
"Krieglach","AT",5236,47.533333,15.55
"Kuchl","AT",6668,47.616667,13.15
"Kufstein","AT",16116,47.583333,12.166667
"Laakirchen","AT",9569,47.966667,13.816667
"Laa","AT",6084,48.716667,16.383333
"Landeck","AT",7351,47.133333,10.566667
"Langenlois","AT",7081,48.466667,15.666667
"Langenzersdorf","AT",7733,48.3,16.35
"Lauterach","AT",9212,47.483056,9.733056
"Leibnitz","AT",7029,46.781667,15.541667
"Lenzing","AT",5044,47.966667,13.616667
"Leoben","AT",24809,47.383333,15.1
"Leonding","AT",22736,48.266667,14.25
"Lienz","AT",12270,46.831111,12.759722
"Liezen","AT",6903,47.566667,14.233333
"Linz","AT",181163,48.3,14.3
"Lochau","AT",5209,47.533333,9.75
"Lustenau","AT",20218,47.433056,9.65
"Marchtrenk","AT",11666,48.183333,14.116667
"Maria Enzersdorf","AT",8085,48.1,16.283333
"Matrei","AT",5076,47,12.533333
"Mattersburg","AT",6448,47.733333,16.4
"Melk","AT",5272,48.216667,15.316667
"Micheldorf","AT",5902,47.85,14.133333
"Mistelbach","AT",10820,48.57,16.576667
"Mittelberg","AT",4627,47.2,9.65
"Mittersill","AT",5680,47.266667,12.483333
"Modling","AT",20710,48.083333,16.283333
"Moosburg","AT",4602,46.6575,14.174722
"Murzzuschlag","AT",9410,47.6,15.683333
"Nenzing","AT",5856,47.183056,9.7
"Neudorfl","AT",4183,47.783333,16.283333
"Neulengbach","AT",7521,48.2,15.9
"Neunkirchen","AT",11313,47.716667,16.083333
"Neusiedl am See","AT",5949,47.933333,16.833333
"Nuziders","AT",4628,47.166667,9.8
"Oberndorf","AT",5738,48.25,13.333333
"Oberwart","AT",6879,47.283333,16.2
"Pasching","AT",6143,48.25,14.2
"Paternion","AT",6301,46.714167,13.636111
"Perchtoldsdorf","AT",14041,48.116667,16.266667
"Perg","AT",7644,48.25,14.633333
"Pinkafeld","AT",5257,47.366667,16.116667
"Pottendorf","AT",6105,47.9,16.383333
"Poysdorf","AT",5653,48.666667,16.633333
"Pressbaum","AT",6083,48.183333,16.083333
"Purgstall","AT",5247,48.05,15.133333
"Purkersdorf","AT",8327,48.2,16.166667
"Radstadt","AT",4926,47.383333,13.45
"Rankweil","AT",11455,47.283056,9.65
"Reichenau","AT",2673,47.7,15.833333
"Retz","AT",4139,48.75,15.95
"Reutte","AT",5851,47.483333,10.716667
"Ried","AT",11511,48.216667,13.5
"Rottenmann","AT",5561,47.516667,14.35
"Rum","AT",8498,47.283333,11.45
"Rust","AT",1726,47.8,16.666667
"Saalfelden","AT",16119,47.416667,12.85
"Salzburg","AT",145310,47.8,13.033333
"Sankt Andra","AT",10825,46.766111,14.823611
"Sankt Florian","AT",5760,48.166667,13.133333
"Sankt Georgen","AT",4180,47.933333,13.483333
"Sankt Jakob","AT",4481,46.547778,14.057222
"Sankt Johann im Pongau","AT",10887,47.35,13.2
"Sankt Polten","AT",49000,48.2,15.633333
"Sankt Valentin","AT",9063,48.166667,14.516667
"Sankt Veit","AT",13116,46.768056,14.360278
"Scharding","AT",4919,48.45,13.433333
"Scharnstein","AT",4631,47.9,13.95
"Schladming","AT",4659,47.383333,13.683333
"Schrems","AT",5811,48.783333,15.066667
"Schruns","AT",3506,47.066667,9.916667
"Schwaz","AT",12507,47.333333,11.7
"Schwechat","AT",15711,48.133333,16.466667
"Seeboden","AT",6221,46.821944,13.495
"Seekirchen","AT",9865,47.9,13.133333
"Seewalchen","AT",4959,47.95,13.583333
"Sieghartskirchen","AT",7062,48.25,16
"Sierning","AT",8722,48.033333,14.3
"Spittal","AT",16363,46.8,13.5
"Steyregg","AT",4856,48.283333,14.366667
"Steyr","AT",39567,48.05,14.416667
"Stockerau","AT",14831,48.383333,16.216667
"Strasshof","AT",7637,48.316667,16.666667
"Tamsweg","AT",6126,47.133333,13.8
"Telfs","AT",14028,47.3,11.066667
"Ternitz","AT",15153,47.716667,16.033333
"Thalgau","AT",5501,47.833333,13.25
"Timelkam","AT",5855,48,13.6
"Traiskirchen","AT",16212,48.016667,16.283333
"Traismauer","AT",5815,48.35,15.733333
"Traun","AT",23959,48.216667,14.233333
"Trofaiach","AT",8313,47.416667,15
"Tulln","AT",14201,48.333333,16.05
"Velden am Worthersee","AT",8817,46.616111,14.045833
"Vienna","AT",1569315,48.2,16.366667
"Villach","AT",58882,46.610278,13.855833
"Vocklabruck","AT",11887,48.016667,13.65
"Vocklamarkt","AT",4869,48,13.483333
"Voitsberg","AT",9980,47.033333,15.15
"Volkermarkt","AT",11543,46.662222,14.634444
"Vols","AT",6573,47.25,11.333333
"Vomp","AT",4628,47.333333,11.683333
"Vorchdorf","AT",7456,48,13.916667
"Waidhofen","AT",11774,47.966667,14.766667
"Wattens","AT",7517,47.283333,11.6
"Weiz","AT",9128,47.216667,15.616667
"Wels","AT",57947,48.166667,14.033333
"Wernberg","AT",5070,46.616667,13.933333
"Wiener Neudorf","AT",8530,48.066667,16.316667
"Wiener Neustadt","AT",38481,47.8,16.25
"Wilhelmsburg","AT",6718,48.1,15.6
"Wolfsberg","AT",25610,46.840556,14.844167
"Wolfurt","AT",8110,47.466667,9.75
"Wolkersdorf","AT",6416,48.383333,16.516667
"Worgl","AT",11265,47.483333,12.066667
"Ybbs","AT",5676,48.166667,15.083333
"Zell am See","AT",10046,47.316667,12.783333
"Zeltweg","AT",7726,47.183333,14.75
"Zirl","AT",6567,47.283333,11.233333
"Zistersdorf","AT",5661,48.533333,16.75
"Zwettl","AT",11718,48.616667,15.166667
"Adelaide","AU",1074168,-34.928661,138.598633
"Albany","AU",23913,-35.003101,117.865952
"Albury","AU",104261,-36.07494,146.923935
"Alice Springs","AU",26188,-23.697479,133.883621
"Alyangula","AU",1289,-13.85413,136.421295
"Ararat","AU",6111,-37.285419,142.927277
"Armidale","AU",22673,-30.50828,151.671234
"Atherton","AU",6959,-17.268641,145.47522
"Australind","AU",6621,-33.279202,115.715042
"Ayr","AU",9079,-19.573931,147.406662
"Bairnsdale","AU",11006,-37.822891,147.610413
"Ballarat","AU",85110,-37.56266,143.862579
"Ballina","AU",14248,-28.86414,153.565414
"Batemans Bay","AU",10557,-35.706581,150.175415
"Benalla","AU",9020,-36.551128,145.984253
"Bendigo","AU",81658,-36.758179,144.280243
"Biloela","AU",6309,-24.416667,150.5
"Blackwater","AU",7250,-23.583509,148.87912
"Bongaree","AU",13649,-27.08367,153.159424
"Bowen","AU",10983,-20.01367,148.247543
"Bowral","AU",9605,-34.477501,150.420395
"Brisbane","AU",1843459,-27.47101,153.024292
"Broken Hill","AU",17395,-31.961729,141.459976
"Broome","AU",13218,-17.955379,122.23922
"Buderim","AU",15228,-26.684429,153.057053
"Bunbury","AU",26370,-33.32711,115.641373
"Bundaberg","AU",52478,-24.866211,152.3479
"Burnie","AU",19976,-41.05584,145.903748
"Burpengary","AU",8280,-27.161131,152.959442
"Busselton","AU",12374,-33.652489,115.345497
"Byron Bay","AU",6764,-28.64201,153.611938
"Caboolture","AU",21478,-27.08465,152.951096
"Cairns","AU",154318,-16.92304,145.766251
"Caloundra","AU",38714,-26.797091,153.137711
"Canberra","AU",324025,-35.27603,149.13435
"Carnarvon","AU",7392,-24.88073,113.659401
"Casino","AU",9539,-28.858191,153.047485
"Castlemaine","AU",6604,-37.067089,144.216843
"Cessnock","AU",16394,-32.832111,151.356232
"Charters Towers","AU",9574,-20.07671,146.263535
"Clifton Springs","AU",7413,-38.1567,144.555099
"Coffs Harbour","AU",62978,-30.296261,153.11351
"Colac","AU",9089,-38.339001,143.584885
"Collie","AU",6337,-33.362061,116.156174
"Coolum Beach","AU",8555,-26.533331,153.091232
"Cooma","AU",6520,-36.234692,149.125977
"Cootamundra","AU",4934,-34.640949,148.028381
"Corowa","AU",5179,-35.999619,146.385803
"Cowra","AU",6799,-33.835541,148.696625
"Craigieburn","AU",19728,-37.6,144.95
"Cranbourne","AU",39420,-38.113419,145.283264
"Crib Point","AU",6908,-38.35,145.2
"Dalby","AU",9848,-27.18169,151.262054
"Darwin","AU",93081,-12.45722,130.836639
"Deception Bay","AU",16090,-27.193541,153.026306
"Deniliquin","AU",8024,-35.527409,144.959579
"Devonport","AU",19318,-41.176949,146.351517
"Dubbo","AU",29362,-32.24295,148.604843
"Emerald","AU",9399,-23.522961,148.157837
"Esperance","AU",7889,-33.86013,121.882591
"Flinders","AU",15000,-32.79924,134.211594
"Forbes","AU",4838,-33.384361,148.007599
"Galiwinku","AU",1347,-12.02811,135.564865
"Gatton","AU",6513,-27.558729,152.276184
"Gawler","AU",16362,-34.602509,138.749023
"Geelong","AU",150438,-38.153461,144.358093
"Geraldton","AU",27259,-28.778971,114.614594
"Gladstone","AU",30493,-23.84761,151.256348
"Gold Coast","AU",501175,-28.00029,153.430878
"Goulburn","AU",20941,-34.751549,149.720856
"Grafton","AU",16399,-29.690121,152.933365
"Griffith","AU",15456,-34.288528,146.050934
"Gunnedah","AU",7148,-30.98065,150.258377
"Gympie","AU",11029,-26.189159,152.658188
"Hamilton","AU",8869,-37.74334,142.028915
"Hastings","AU",6583,-38.3,145.183333
"Healesville","AU",7098,-37.65395,145.517181
"Hervey Bay","AU",47561,-25.285,152.873
"Hobart","AU",204863,-42.883209,147.331665
"Horsham","AU",12830,-36.711311,142.199814
"Howard Springs","AU",3359,-12.49576,131.044464
"Ingham","AU",6127,-18.645519,146.162476
"Innisfail","AU",10144,-17.522091,146.031021
"Inverell","AU",8561,-29.774031,151.111664
"Jabiru","AU",1892,-12.67558,132.831406
"Karratha","AU",11694,-20.73649,116.84638
"Katherine","AU",10142,-14.46517,132.263474
"Kawana Waters","AU",19881,-26.705999,153.131577
"Kempsey","AU",9522,-31.078979,152.830933
"Kiama","AU",10380,-34.668282,150.852188
"Kingaroy","AU",8573,-26.53994,151.837296
"Kununurra","AU",5679,-15.77813,128.744141
"Kurri Kurri","AU",10991,-32.819328,151.47908
"Kwinana","AU",20087,-32.230129,115.781281
"Kyabram","AU",6396,-36.313351,145.050354
"Lakes Entrance","AU",5849,-37.878941,147.995132
"Lara","AU",8179,-38.02388,144.406174
"Launceston","AU",72462,-41.438759,147.134674
"Leeton","AU",7299,-34.551048,146.404831
"Lemon Tree Passage","AU",5865,-32.731579,152.037186
"Leopold","AU",6120,-38.19001,144.468246
"Lismore","AU",31433,-28.81328,153.275803
"Lithgow","AU",11129,-33.482471,150.136307
"Mackay","AU",75924,-21.15345,149.165543
"Mandurah","AU",73369,-32.526901,115.721703
"Maningrida","AU",1391,-12.05111,134.22258
"Mareeba","AU",8403,-16.995001,145.423233
"Maryborough","AU",20680,-25.54073,152.704926
"Maryborough","AU",7046,-37.04562,143.739227
"Medowie","AU",5841,-32.741501,151.867599
"Melbourne","AU",3730212,-37.813938,144.963425
"Melton","AU",32369,-37.683392,144.585434
"Mildura","AU",47867,-34.185509,142.162506
"Milingimbi","AU",986,-12.10188,134.919006
"Mittagong","AU",6717,-34.45002,150.445724
"Moranbah","AU",7955,-21.99828,148.034836
"Morayfield","AU",10261,-27.108761,152.949066
"Moree","AU",8205,-29.46278,149.841568
"Morwell","AU",11585,-38.23476,146.394989
"Moss Vale","AU",6739,-34.553741,150.371155
"Mount Barker","AU",8357,-35.066667,138.866667
"Mount Gambier","AU",23210,-37.831799,140.77919
"Mount Isa","AU",22564,-20.725229,139.497269
"Mudgee","AU",9042,-32.433333,149.583333
"Murray Bridge","AU",11356,-35.119862,139.273453
"Murwillumbah","AU",6868,-28.32732,153.393387
"Muswellbrook","AU",11630,-32.261181,150.890091
"Nambour","AU",14919,-26.626129,152.959412
"Nambucca Heads","AU",6899,-30.643181,153.008835
"Narrabri","AU",7082,-30.32612,149.783707
"Nelson Bay","AU",7725,-32.720428,152.143982
"Nerang","AU",17684,-27.98941,153.336334
"Newcastle","AU",497961,-32.927792,151.784485
"New Norfolk","AU",5526,-42.78075,147.059387
"Nguiu","AU",1250,-11.75911,130.638153
"Ngukurr","AU",947,-14.73081,134.731018
"Nhulunbuy","AU",3202,-12.18652,136.782013
"Northam","AU",5858,-31.649321,116.674232
"Orange","AU",30402,-33.283089,149.100006
"Pakenham","AU",10602,-38.070179,145.474106
"Palmerston","AU",31075,-12.45722,130.836639
"Parkes","AU",11137,-33.137199,148.175903
"Perth","AU",1446715,-31.95224,115.861397
"Port Augusta","AU",12133,-32.495972,137.772812
"Port Hedland","AU",14289,-20.312149,118.610588
"Port Keats","AU",1351,-14.24029,129.52092
"Portland","AU",8842,-38.352612,141.605743
"Port Lincoln","AU",11247,-34.72625,135.87442
"Port Macquarie","AU",48553,-31.43084,152.908936
"Port Pirie","AU",12328,-33.191761,138.017456
"Queanbeyan","AU",32249,-35.354931,149.231995
"Raymond Terrace","AU",13606,-32.75,151.75
"Rockhampton","AU",65851,-23.38032,150.505951
"Roebourne","AU",19264,-20.772289,117.146477
"Roma","AU",5497,-26.56741,148.787506
"Sale","AU",12917,-38.11095,147.068024
"Sawtell","AU",14608,-30.36459,153.10141
"Singleton","AU",13813,-32.567421,151.166031
"Somerville","AU",7015,-38.216667,145.166667
"Stawell","AU",6991,-37.05632,142.780884
"Sunbury","AU",29926,-37.577419,144.726074
"Swan Hill","AU",9276,-35.3386,143.559525
"Sydney","AU",4394585,-33.861481,151.205475
"Tamworth","AU",38552,-31.090481,150.929047
"Taree","AU",44183,-31.91099,152.453873
"Toowoomba","AU",92802,-27.56056,151.953857
"Torquay","AU",6670,-25.283333,152.866667
"Townsville","AU",138959,-19.26639,146.805695
"Traralgon","AU",18226,-38.195278,146.541504
"Tumut","AU",6526,-35.300159,148.225052
"Ulladulla","AU",9250,-35.359058,150.472473
"Ulverstone","AU",9605,-41.160259,146.182419
"Victor Harbor","AU",7760,-35.550419,138.621536
"Victoria Point","AU",11930,-27.58329,153.311722
"Wagga Wagga","AU",55382,-35.125771,147.353745
"Wangaratta","AU",14023,-36.358459,146.320557
"Warragul","AU",9128,-38.159119,145.931183
"Warrnambool","AU",29928,-38.38176,142.487991
"Warwick","AU",12347,-28.219009,152.034378
"Wellington","AU",5428,-32.555882,148.945084
"Whyalla","AU",19646,-33.032681,137.564835
"Wodonga","AU",31518,-36.121792,146.888092
"Wollongong","AU",260918,-34.424,150.893448
"Wonthaggi","AU",5985,-38.605862,145.593552
"Yeppoon","AU",10769,-23.126829,150.744064
"Young","AU",7501,-34.313499,148.301071
"Yulara","AU",3903,-25.245291,130.980545
"Oranjestad","AW",29998,12.5166667,-70.0333333
"Agdam","AZ",39451,39.99096,46.927356
"Agdas","AZ",23528,40.65,47.476111
"Agstafa","AZ",12542,41.118889,45.453889
"Agsu","AZ",17209,40.569167,48.396476
"Alunitdag","AZ",857,40.521667,46.080556
"Aran","AZ",6724,40.625278,46.975556
"Artyom","AZ",13435,40.472255,50.333041
"Astara","AZ",15190,38.455977,48.87498
"Badamdar","AZ",11398,40.339444,49.803889
"Baku","AZ",1116513,40.395278,49.882222
"Basqal","AZ",1234,40.7552,48.391044
"Buzovna","AZ",24795,40.517888,50.113901
"Ceyranbatan","AZ",5684,40.540833,49.659722
"Corat","AZ",8624,40.5725,49.706389
"Culfa","AZ",10820,38.9558,45.6308
"Gilazi","AZ",3277,40.903896,49.335522
"Gilazi","AZ",3277,40.870977,49.342333
"Goranboy","AZ",7334,40.610278,46.789722
"Göyçay","AZ",35348,40.653056,47.740556
"Gürgan","AZ",712,40.397462,50.336733
"Guzdak","AZ",2462,40.374444,49.681944
"Hadrut","AZ",2523,39.520018,47.0318
"Haftoni","AZ",2003,38.763253,48.762231
"Hasanabad","AZ",4308,39.336672,49.214143
"Horadiz","AZ",2714,39.448771,47.335313
"Hövsan","AZ",36293,40.374444,50.085278
"Imisli","AZ",31381,39.871307,48.064094
"Istisu","AZ",929,39.947532,45.962121
"Kesla","AZ",17913,40.397778,49.898611
"Kijäba","AZ",4567,38.532778,48.816667
"Kirovskiy","AZ",34488,40.433333,49.85
"Korgöz","AZ",2036,40.303056,49.62
"Lerik","AZ",7094,38.772633,48.412788
"Lökbatan","AZ",30694,40.323718,49.728038
"Masalli","AZ",9603,39.027781,48.670276
"Mastaga","AZ",40092,40.532778,50.003889
"Mincivan","AZ",6353,39.029348,46.718471
"Mugan","AZ",4410,40.095182,48.821136
"Naftalan","AZ",7045,40.506667,46.825
"Nardaran","AZ",7700,40.556111,50.005556
"Neftçala","AZ",18661,39.37417,49.247224
"Ordubad","AZ",9781,38.905954,46.023411
"Pirsagi","AZ",5102,40.564032,49.8913
"Pushkino","AZ",18182,39.458333,48.545
"Puta","AZ",1018,40.296667,49.660278
"Qabaqçöl","AZ",1293,41.72,46.264722
"Qala","AZ",2709,40.44182,50.168121
"Qaraçala","AZ",4211,39.813178,48.952303
"Qaraçuxur","AZ",72989,40.396667,49.973611
"Qarayeri","AZ",5565,40.78862,46.306589
"Qax","AZ",11993,41.4225,46.924167
"Qazanbulaq","AZ",980,40.618611,46.645278
"Qazax","AZ",18904,41.093333,45.366111
"Qobu","AZ",7377,40.404722,49.713056
"Qobustan","AZ",13398,40.08238,49.412048
"Qovlar","AZ",12819,40.942137,45.732171
"Quba","AZ",22405,41.362587,48.515186
"Qusar","AZ",16022,41.427284,48.42893
"Quscu","AZ",408,40.555556,46.091944
"Ramana","AZ",8855,40.442222,49.980556
"Sabirabad","AZ",28076,40.009458,48.475154
"Sabunçu","AZ",20996,40.4425,49.948056
"Sahbuz","AZ",2674,39.407222,45.573889
"Salyan","AZ",36555,39.593615,48.980552
"Samur","AZ",1760,41.632544,48.430248
"Saray","AZ",10173,40.532222,49.716389
"Sollar","AZ",205,41.639727,48.664408
"Sonqar","AZ",730,40.322099,49.601085
"Suraabad","AZ",1945,40.819244,49.468745
"Susa","AZ",18663,39.758934,46.749187
"Tovuz","AZ",12626,40.992222,45.628889
"Türkan","AZ",9699,40.363889,50.215
"Türyançay","AZ",307,40.7088,47.54326
"Ucar","AZ",15741,40.518333,47.654167
"Vurgun","AZ",2635,41.094229,45.471616
"Xaçmaz","AZ",37175,41.463489,48.80605
"Xanlar","AZ",17816,40.586944,46.315833
"Xocali","AZ",5810,39.9,46.866667
"Xocali","AZ",5810,39.912973,46.790284
"Xocasan","AZ",5089,40.413484,49.772088
"Xudat","AZ",13625,41.630965,48.681
"Yevlax","AZ",53715,40.612732,47.142329
"Zabrat","AZ",21396,40.476104,49.941582
"Zaqatala","AZ",18277,41.633611,46.643333
"Zig","AZ",6001,40.343889,49.969167
"Banja Luka","BA",221100,44.7758333,17.1855556
"Banovici","BA",7211,44.4041667,18.4475
"Barice","BA",3697,44.5405556,18.4811111
"Batkovici","BA",4923,44.8536111,19.1963889
"Bihac","BA",75641,44.8169444,15.8708333
"Bijela","BA",3484,43.6086111,17.9519444
"Bijeljina","BA",37691,44.7569444,19.2161111
"Bila","BA",4397,43.7825,16.9252778
"Bileca","BA",13256,42.8719444,18.4297222
"Blagaj","BA",4715,43.2575,17.8886111
"Blatnica","BA",5675,44.3530556,17.5894444
"Bosanska Dubica","BA",9959,45.1766667,16.8094444
"Bosanska Gradiska","BA",13345,45.1411111,17.25
"Bosanska Kostajnica","BA",4739,45.2197222,16.5358333
"Bosanska Krupa","BA",15193,44.8825,16.1513889
"Bosanski Brod","BA",9249,45.1375,17.9897222
"Bosanski Novi","BA",8920,45.0458333,16.3802778
"Bosanski Samac","BA",3599,45.0591667,18.4669444
"Bosansko Grahovo","BA",5642,44.1794444,16.3638889
"Bratunac","BA",4717,44.1875,19.3394444
"Brcko","BA",38478,44.8727778,18.8083333
"Breza","BA",3732,44.0161111,18.2588889
"Bronzani Majdan","BA",3945,44.7869444,16.9311111
"Bugojno","BA",41378,44.0572222,17.4508333
"Busovaca","BA",4775,44.0975,17.8788889
"Buzim","BA",7229,45.0547222,16.0319444
"Cajnice","BA",3908,43.5575,19.0711111
"Capljina","BA",7923,43.1138889,17.7036111
"Careva Cuprija","BA",3954,44.2658333,18.4291667
"Cazin","BA",21741,44.9669444,15.9430556
"Cecava","BA",3847,44.6866667,17.7705556
"Celinac","BA",6670,44.7227778,17.3277778
"Cim","BA",3966,43.3527778,17.7772222
"Citluk","BA",5718,43.2286111,17.7008333
"Coralici","BA",5223,44.9830556,15.9041667
"Crnici","BA",5789,43.1288889,17.8666667
"Derventa","BA",9772,44.9772222,17.9102778
"Divicani","BA",7250,44.3666667,17.3261111
"Doboj","BA",27234,44.7347222,18.0877778
"Dobrinje","BA",3987,44.0497222,18.1194444
"Dobrljin","BA",3581,45.1469444,16.5033333
"Donja Dubica","BA",3489,45.075,18.4113889
"Donja Mahala","BA",5565,45.0469444,18.6663889
"Donja Medjidja","BA",3782,44.8025,18.4033333
"Donja Orahovica","BA",5612,44.6530556,18.3702778
"Donje Dubrave","BA",3811,44.4811111,18.6961111
"Donje Vukovije","BA",3535,44.4636111,18.7538889
"Donji Vakuf","BA",7955,44.1436111,17.4
"Dreznica","BA",3908,43.5288889,17.2819444
"Drinovci","BA",3791,43.355,17.3538889
"Dubravica","BA",3868,44.4419444,18.1180556
"Foca","BA",14614,43.505,18.7786111
"Fojnica","BA",8244,43.9625,17.8983333
"Gacko","BA",3417,43.1672222,18.5352778
"Glamoc","BA",4015,44.0458333,16.8486111
"Gnojnica","BA",3985,44.6205556,18.4466667
"Gorazde","BA",17649,43.6669444,18.9763889
"Gornja Koprivna","BA",4600,45.0119444,15.9572222
"Gornja Tuzla","BA",4864,44.5561111,18.7613889
"Gornje Dubrave","BA",4821,44.4713889,18.7297222
"Gornje Zivinice","BA",4661,44.4286111,18.6169444
"Gornji Vakuf","BA",7014,43.9380556,17.5883333
"Gostovici","BA",5802,44.415,18.1583333
"Gracanica","BA",15758,44.7033333,18.3097222
"Gradacac","BA",15659,44.8808333,18.4269444
"Gromiljak","BA",6457,43.9666667,18.0530556
"Grude","BA",4627,43.3641667,17.4205556
"Hadzici","BA",7173,43.8222222,18.2066667
"Hotonj","BA",4013,43.8947222,18.3727778
"Ilici","BA",3688,43.3472222,17.7680556
"Ilijas","BA",5854,43.9508333,18.2708333
"Izacic","BA",4089,44.875,15.7819444
"Jablanica","BA",6209,43.6602778,17.7616667
"Jajce","BA",9762,44.3422222,17.2655556
"Janja","BA",5543,44.6652778,19.2477778
"Jelah","BA",5291,44.6541667,17.9580556
"Jezerski","BA",4361,44.9808333,16.0841667
"Kacuni","BA",5042,44.065,17.9386111
"Kakanj","BA",12405,44.1272222,18.1180556
"Karadaglije","BA",3700,44.5716667,18.0183333
"Kiseljak","BA",3447,44.4888889,18.5688889
"Kladanj","BA",6783,44.2263889,18.6913889
"Kljuc","BA",7244,44.535,16.7722222
"Knezica","BA",4792,45.1027778,16.6775
"Kobilja Glava","BA",3666,43.8819444,18.3891667
"Kocerin","BA",3516,43.3897222,17.485
"Konjic","BA",15950,43.6519444,17.9613889
"Koran","BA",3394,43.8102778,18.5688889
"Laktasi","BA",6464,44.9080556,17.3008333
"Lamovita","BA",4582,44.9255556,16.9072222
"Lijesnica","BA",3559,44.4941667,18.0741667
"Listica","BA",9370,43.3833333,17.5927778
"Livno","BA",11748,43.8269444,17.0077778
"Ljubinje","BA",4235,42.9508333,18.0886111
"Ljubuski","BA",9987,43.1969444,17.545
"Lokvine","BA",3928,44.2047222,17.8563889
"Lopare","BA",3614,44.6377778,18.8427778
"Lukavac","BA",12607,44.5419444,18.5258333
"Lukavica","BA",4084,44.7627778,18.1688889
"Maglajani","BA",4221,44.9486111,17.3494444
"Maglaj","BA",7398,44.5491667,18.0966667
"Mala Kladusa","BA",6033,45.1341667,15.8586111
"Malesici","BA",3764,44.7380556,18.2738889
"Maricka","BA",3707,44.8588889,16.8522222
"Maslovare","BA",4899,44.5655556,17.5336111
"Milici","BA",8210,44.1316667,19.0316667
"Mionica","BA",8701,44.8672222,18.4630556
"Modrica","BA",5135,44.9544444,18.3036111
"Mostar","BA",104517,43.3433333,17.8080556
"Mostre","BA",4009,44.025,18.1413889
"Mramor","BA",3918,44.5916667,18.5644444
"Mrkonjic Grad","BA",14737,44.4158333,17.0861111
"Nevesinje","BA",7312,43.2586111,18.1133333
"Novi Seher","BA",4416,44.5102778,18.0258333
"Novi Travnik","BA",10006,44.1711111,17.6575
"Obudovac","BA",2171,44.965,18.6122222
"Odzak","BA",11621,45.0111111,18.3266667
"Olovo","BA",3305,44.13,18.5827778
"Omarska","BA",6466,44.89,16.8991667
"Orasac","BA",3856,44.6288889,16.0711111
"Orasje","BA",3613,45.0355556,18.6933333
"Orguz","BA",4371,43.7738889,16.8638889
"Ostra Luka","BA",3923,45,18.5883333
"Ostrozac","BA",5456,44.9086111,15.9402778
"Otoka","BA",6595,44.96,16.1791667
"Pajic Polje","BA",4026,43.9758333,17.5275
"Pale","BA",7458,43.8161111,18.5694444
"Pazaric","BA",4787,43.7886111,18.1608333
"Pecigrad","BA",6514,45.0544444,15.8969444
"Peci","BA",3650,44.6272222,16.7861111
"Petkovci","BA",2211,44.4530556,19.0761111
"Piskavica","BA",3797,44.8341667,16.9888889
"Pjanici","BA",3537,44.9836111,15.8227778
"Podbrdo","BA",4028,44.4408333,17.0138889
"Podhum","BA",5801,43.7230556,17.0011111
"Podzvizd","BA",6665,45.1741667,15.8736111
"Polje","BA",3799,43.8805556,18.0744444
"Posusje","BA",5114,43.4722222,17.3266667
"Potoci","BA",8311,43.4086111,17.8786111
"Pribinic","BA",3558,44.6105556,17.6905556
"Priboj","BA",4351,44.6027778,18.9313889
"Prijedor","BA",36346,44.9813889,16.7130556
"Prnjavor","BA",7098,44.8702778,17.6627778
"Prozor","BA",10349,43.8222222,17.6091667
"Puracic","BA",3461,44.5469444,18.4766667
"Radisici","BA",4071,43.2219444,17.5430556
"Rodoc","BA",5159,43.3088889,17.8069444
"Rogatica","BA",4946,43.8008333,19.0025
"Rumboci","BA",3854,43.8322222,17.5011111
"Sanica","BA",5666,44.6141667,16.6411111
"Sanski Most","BA",13550,44.7652778,16.6655556
"Sarajevo","BA",696726,43.85,18.3833333
"Sekovici","BA",6315,44.2986111,18.8527778
"Serici","BA",3663,44.4652778,18.5580556
"Sipovo","BA",10737,44.2813889,17.0838889
"Skender Vakuf","BA",6866,44.4908333,17.3775
"Skokovi","BA",3553,45.0313889,15.9144444
"Sladna","BA",4304,44.7294444,18.4241667
"Sokolac","BA",8842,43.9397222,18.8016667
"Solina","BA",4780,44.5602778,18.6947222
"Srbac","BA",7380,45.0977778,17.525
"Srebrenica","BA",2861,44.1063889,19.2969444
"Srebrenik","BA",6723,44.7077778,18.4880556
"Stanari","BA",3590,44.7472222,17.8294444
"Stijena","BA",10844,44.9352778,16.0172222
"Stolac","BA",7733,43.0844444,17.9575
"Stupari","BA",4424,44.3147222,18.6841667
"Sturlic","BA",5013,45.0638889,15.7780556
"Sumatac","BA",4987,45.0988889,15.8575
"Svodna","BA",4387,45.0372222,16.5383333
"Svojat","BA",3515,44.3947222,18.7391667
"Tesanjka","BA",5666,44.6730556,18.0127778
"Tesanj","BA",7549,44.6116667,17.9872222
"Teslic","BA",6404,44.6063889,17.8597222
"Todorovo","BA",9560,45.0883333,15.9308333
"Tojsici","BA",6587,44.4813889,18.7869444
"Tolisa","BA",4282,45.0430556,18.6427778
"Tomislavgrad","BA",7737,43.7180556,17.2266667
"Travnik","BA",31127,44.2266667,17.6705556
"Trebinje","BA",33177,42.7119444,18.3441667
"Trn","BA",7553,44.8597222,17.2363889
"Trzacka Rastela","BA",6617,44.9733333,15.7902778
"Turbe","BA",4766,44.2436111,17.5713889
"Tuzla","BA",142484,44.5427778,18.6694444
"Ugljevik","BA",3452,44.6636111,19.0202778
"Ustikolina","BA",4446,43.5836111,18.79
"Vares","BA",7193,44.1644444,18.3283333
"Varoska Rijeka","BA",6573,45.0847222,16.0141667
"Velagici","BA",4972,44.5572222,16.7316667
"Velika Kladusa","BA",19330,45.1894444,15.8116667
"Velika Obarska","BA",5142,44.8052778,19.1641667
"Vidosi","BA",3905,43.7713889,17.0283333
"Visegrad","BA",6086,43.7847222,19.2991667
"Visoko","BA",17890,43.9888889,18.1780556
"Vitez","BA",8140,44.1544444,17.7902778
"Vitina","BA",4384,43.2375,17.4838889
"Vlasenica","BA",4508,44.1819444,18.9405556
"Vogosca","BA",8179,43.9019444,18.3480556
"Voljevac","BA",3764,43.8786111,17.6591667
"Vozuca","BA",3209,44.3613889,18.3577778
"Vrnograc","BA",6859,45.1636111,15.9536111
"Zabrisce","BA",4261,43.7925,16.9422222
"Zavidovici","BA",14380,44.4458333,18.1497222
"Zboriste","BA",4922,45.1458333,16.0177778
"Zeljezno Polje","BA",5783,44.4083333,17.9319444
"Zenica","BA",164422,44.2013889,17.9063889
"Zepce","BA",8502,44.4266667,18.0377778
"Zivinice","BA",13640,44.4494444,18.6497222
"Zivinice","BA",3718,44.5472222,17.375
"Zvornik","BA",8024,44.3869444,19.1013889
"Bathsheba","BB",1765,13.2166667,-59.5166667
"Blackmans","BB",623,13.1833333,-59.5333333
"Bridgetown","BB",98511,13.1,-59.6166667
"Crab Hill","BB",727,13.3166667,-59.6333333
"Greenland","BB",623,13.25,-59.5666667
"Hillaby","BB",519,13.2166667,-59.5833333
"Holetown","BB",1350,13.1833333,-59.65
"Oistins","BB",2285,13.0666667,-59.5333333
"Speightstown","BB",3634,13.25,-59.65
"Abhaynagar","BD",42658,23.0166667,89.4666667
"Badarganj","BD",32604,25.6666667,89.05
"Bajitpur","BD",34564,24.2166667,90.95
"Bandarban","BD",32526,22.2,92.2166667
"Baniachang","BD",37812,24.5166667,91.3666667
"Barisal","BD",280437,22.7,90.3666667
"Bera","BD",39608,24.0833333,89.6166667
"Bhairab Bazar","BD",105470,24.0666667,90.9666667
"Bhandaria","BD",30222,22.4833333,90.0666667
"Bheramara","BD",38164,24.0333333,88.9666667
"Bhola","BD",99090,22.6833333,90.65
"Chandpur","BD",120183,23.15,90.7166667
"Char Bhadrasan","BD",34427,23.3166667,90.2166667
"Chhagalnaiya","BD",39339,23.03,91.5069444
"Chhatak","BD",39223,25.0333333,91.6666667
"Chilmari","BD",49742,25.55,89.7166667
"Dhaka","BD",6493177,23.7230556,90.4086111
"Dhamrai","BD",38003,23.9122222,90.2683333
"Dinajpur","BD",206251,25.6333333,88.6333333
"Dohar","BD",45549,23.5883333,90.1469444
"Faridpur","BD",112200,23.6,89.8333333
"Fatikchhari","BD",39974,22.725,91.7675
"Feni","BD",84038,23.0186111,91.41
"Gafargaon","BD",34181,24.4333333,90.5666667
"Gaurnadi","BD",40524,22.9666667,90.2333333
"Gazipur","BD",132249,23.8,90.65
"Habiganj","BD",88770,24.3833333,91.4166667
"Hajiganj","BD",44349,23.2511111,90.8591667
"Ishurdi","BD",82005,24.1333333,89.0833333
"Jaipur Hat","BD",73076,25.1,89.0166667
"Jamalpur","BD",167914,24.9166667,89.9333333
"Jhikargachha","BD",41962,23.1166667,89.1166667
"Kalia","BD",40497,23.05,89.6333333
"Kaliganj","BD",45636,23.4166667,89.1333333
"Keshabpur","BD",30930,22.9166667,89.2166667
"Khagrachari","BD",50364,23.1,91.9666667
"Khulna","BD",1342429,22.8,89.55
"Kishorganj","BD",90700,24.4333333,90.7666667
"Laksham","BD",82299,23.2472222,91.1425
"Lakshmipur","BD",61710,22.95,90.8333333
"Lalmanir Hat","BD",65135,25.9,89.45
"Lalmohan","BD",42225,22.3166667,90.7166667
"Madaripur","BD",84799,23.1752778,90.2072222
"Manikchhari","BD",24836,22.8386111,91.8455556
"Manikganj","BD",85800,23.8552778,90.0125
"Mathbaria","BD",29764,22.3,89.95
"Maulvi Bazar","BD",57448,24.4833333,91.7833333
"Mehendiganj","BD",39429,22.8166667,90.5333333
"Mirzapur","BD",41142,24.1,90.1
"Morrelganj","BD",31651,22.4666667,89.85
"Muktagachha","BD",24687,24.7666667,90.2333333
"Nabinagar","BD",31675,23.8916667,90.9733333
"Nageshwari","BD",49431,25.9666667,89.7166667
"Nalchiti","BD",38708,22.6333333,90.2833333
"Naral","BD",55118,23.1666667,89.5
"Narayanganj","BD",223773,23.6233333,90.5011111
"Narsingdi","BD",281110,23.9208333,90.7180556
"Nawabganj","BD",142373,24.6,88.2833333
"Netrakona","BD",79025,24.8833333,90.7166667
"Pabna","BD",137904,24,89.25
"Palang","BD",67659,23.2166667,90.35
"Panchagarh","BD",48536,26.3333333,88.5666667
"Parbatipur","BD",48026,25.65,88.9166667
"Patiya","BD",51367,22.3030556,91.9783333
"Phultala","BD",37990,22.7,89.5166667
"Pirganj","BD",34610,25.8666667,88.3666667
"Pirojpur","BD",54424,22.5666667,89.9833333
"Rajshahi","BD",700206,24.3666667,88.6
"Ramganj","BD",55247,23.1,90.85
"Ramgarh","BD",28017,22.9702778,91.7966667
"Rangpur","BD",285586,25.75,89.25
"Raozan","BD",25711,22.5661111,91.9325
"Raypur","BD",64659,23.05,90.7666667
"Sakhipur","BD",40874,24.3,90.1833333
"Sarankhola","BD",36475,22.3,89.7833333
"Sarishabari","BD",81334,24.7333333,89.8333333
"Satkhira","BD",128933,22.7166667,89.1
"Sherpur","BD",107431,25.0166667,90.0166667
"Shibganj","BD",35965,24.6833333,88.1666667
"Sirajganj","BD",167501,24.45,89.7166667
"Sunamganj","BD",76491,25.0666667,91.4
"Teknaf","BD",40562,20.8666667,92.3
"Thakurgaon","BD",71104,26.0333333,88.4666667
"Tungi","BD",337620,23.89,90.4058333
"Aalst","BE",77534,50.933333,4.033333
"Aalter","BE",18802,51.083333,3.45
"Aarschot","BE",27656,50.983333,4.833333
"Aartselaar","BE",14193,51.133333,4.383333
"Alken","BE",10933,50.866667,5.3
"Alveringem","BE",4910,51.016667,2.716667
"Amay","BE",13307,50.55,5.316667
"Amel","BE",5221,50.35,6.15
"Andenne","BE",24055,50.483333,5.1
"Anderlues","BE",11597,50.4,4.266667
"Anhée","BE",7125,50.316667,4.883333
"Ans","BE",27297,50.65,5.533333
"Anthisnes","BE",4116,50.483333,5.516667
"Antoing","BE",7507,50.566667,3.45
"Antwerp","BE",459805,51.216667,4.416667
"Anzegem","BE",13920,50.833333,3.466667
"Ardooie","BE",9161,50.983333,3.2
"Arendonk","BE",12247,51.316667,5.083333
"Arlon","BE",26179,49.683333,5.816667
"As","BE",7250,51.016667,5.583333
"Asse","BE",28985,50.916667,4.2
"Assenede","BE",13495,51.233333,3.75
"Assesse","BE",6279,50.366667,5.016667
"Ath","BE",26681,50.633333,3.783333
"Attert","BE",4491,49.766667,5.783333
"Aubange","BE",14932,49.583333,5.8
"Aubel","BE",4119,50.7,5.85
"Avelgem","BE",9106,50.766667,3.433333
"Awans","BE",8612,50.666667,5.466667
"Aywaille","BE",10636,50.466667,5.666667
"Baarle-Hertog","BE",2305,51.45,4.933333
"Baelen","BE",3928,50.633333,5.966667
"Balen","BE",19978,51.166667,5.15
"Bassenge","BE",8151,50.766667,5.6
"Bastogne","BE",14395,50,5.716667
"Beaumont","BE",6645,50.233333,4.233333
"Beauraing","BE",8242,50.116667,4.966667
"Beauvechain","BE",6334,50.783333,4.766667
"Beernem","BE",14512,51.15,3.333333
"Beerse","BE",16208,51.316667,4.866667
"Beersel","BE",23228,50.766667,4.3
"Begijnendijk","BE",9178,51.016667,4.766667
"Bekkevoort","BE",5714,50.95,4.966667
"Beloeil","BE",13405,50.55,3.716667
"Beringen","BE",40930,51.05,5.216667
"Berlaar","BE",10370,51.116667,4.65
"Berlare","BE",13853,51.033333,4
"Berloz","BE",2770,50.7,5.216667
"Bernissart","BE",11588,50.466667,3.633333
"Bertem","BE",9215,50.866667,4.633333
"Bertogne","BE",2852,50.083333,5.666667
"Bertrix","BE",8063,49.85,5.25
"Bever","BE",1932,50.916667,4.316667
"Beveren","BE",45179,51.216667,4.25
"Beyne-Heusay","BE",11608,50.616667,5.65
"Bierbeek","BE",8994,50.833333,4.766667
"Bièvre","BE",3207,49.933333,5.016667
"Bilzen","BE",29622,50.866667,5.516667
"Binche","BE",32030,50.4,4.166667
"Blankenberge","BE",18230,51.316667,3.133333
"Blegny","BE",12745,50.666667,5.733333
"Bocholt","BE",12346,51.166667,5.583333
"Boechout","BE",12145,51.166667,4.5
"Bonheiden","BE",14260,51.033333,4.533333
"Boom","BE",15810,51.083333,4.366667
"Boortmeerbeek","BE",11570,50.983333,4.566667
"Borgloon","BE",9955,50.8,5.333333
"Bornem","BE",19997,51.1,4.233333
"Borsbeek","BE",10334,51.2,4.483333
"Bouillon","BE",5347,49.8,5.066667
"Boussu","BE",20058,50.433333,3.8
"Boutersem","BE",7702,50.85,4.833333
"Braine-le-Château","BE",9627,50.683333,4.266667
"Braine-le-Comte","BE",20133,50.6,4.133333
"Braives","BE",5672,50.633333,5.15
"Brasschaat","BE",37040,51.283333,4.45
"Brecht","BE",25908,51.35,4.633333
"Bredene","BE",14862,51.233333,2.966667
"Bree","BE",14363,51.133333,5.6
"Brugelette","BE",3358,50.6,3.85
"Brugge","BE",116709,51.216667,3.233333
"Brunehaut","BE",7592,50.5,4.416667
"Brussels","BE",1019022,50.833333,4.333333
"Buggenhout","BE",13510,51.016667,4.2
"Bullingen","BE",5340,50.416667,6.266667
"Burdinne","BE",2799,50.583333,5.066667
"Butgenbach","BE",5516,50.433333,6.2
"Celles","BE",5471,50.716667,3.45
"Cerfontaine","BE",4500,50.166667,4.416667
"Chapelle-lez-Herlaimont","BE",14353,50.466667,4.283333
"Charleroi","BE",200132,50.416667,4.433333
"Chastre","BE",6243,50.6,4.633333
"Châtelet","BE",35238,50.4,4.516667
"Chaudfontaine","BE",20960,50.583333,5.633333
"Chaumont-Gistoux","BE",10943,50.683333,4.733333
"Chièvres","BE",6045,50.583333,3.8
"Chimay","BE",9720,50.05,4.316667
"Chiny","BE",4897,49.733333,5.333333
"Ciney","BE",14830,50.3,5.1
"Clavier","BE",4092,50.416667,5.366667
"Colfontaine","BE",19964,50.383333,3.866667
"Comblain-au-Pont","BE",5308,50.466667,5.583333
"Courcelles","BE",29473,50.466667,4.366667
"Court-Saint-Étienne","BE",9353,50.65,4.566667
"Couvin","BE",13518,50.05,4.483333
"Crisnée","BE",2587,50.716667,5.4
"Dalhem","BE",6391,50.716667,5.716667
"Damme","BE",10924,51.25,3.283333
"Daverdisse","BE",1299,50.016667,5.116667
"Deerlijk","BE",11292,50.85,3.35
"De Haan","BE",11766,51.266667,3.033333
"Deinze","BE",27777,50.983333,3.533333
"Denderleeuw","BE",16969,50.883333,4.066667
"Dendermonde","BE",43055,51.033333,4.116667
"Dentergem","BE",8038,50.966667,3.416667
"De Panne","BE",9799,51.1,2.583333
"De Pinte","BE",10020,51,3.65
"Dessel","BE",8707,51.233333,5.116667
"Destelbergen","BE",16853,51.05,3.8
"Diepenbeek","BE",17699,50.9,5.4
"Diest","BE",22516,50.983333,5.05
"Diksmuide","BE",15515,51.033333,2.866667
"Dilbeek","BE",39482,50.85,4.266667
"Dinant","BE",12875,50.266667,4.916667
"Dison","BE",13642,50.616667,5.85
"Doische","BE",2739,50.133333,4.75
"Donceel","BE",2712,50.65,5.316667
"Dour","BE",16861,50.4,3.783333
"Drogenbos","BE",4843,50.783333,4.316667
"Duffel","BE",16011,51.1,4.516667
"Durbuy","BE",10251,50.35,5.466667
"Edegem","BE",21839,51.15,4.45
"Eeklo","BE",19116,51.183333,3.566667
"Éghezée","BE",14352,50.6,4.9
"Ellezelles","BE",5566,50.733333,3.683333
"Enghien","BE",11367,50.7,4.033333
"Engis","BE",5737,50.583333,5.416667
"Érezée","BE",2930,50.3,5.55
"Erquelinnes","BE",9396,50.3,4.116667
"Esneux","BE",13497,50.533333,5.566667
"Essen","BE",16754,51.466667,4.466667
"Estaimpuis","BE",9340,50.7,3.25
"Étalle","BE",5228,49.683333,5.6
"Eupen","BE",18029,50.633333,6.033333
"Evergem","BE",31615,51.116667,3.7
"Faimes","BE",3349,50.666667,5.266667
"Farciennes","BE",11488,50.433333,4.55
"Fauvillers","BE",1952,49.85,5.666667
"Ferrières","BE",4434,50.4,5.6
"Fexhe-le-Haut-Clocher","BE",3082,50.666667,5.4
"Fléron","BE",15994,50.616667,5.683333
"Fleurus","BE",22080,50.483333,4.533333
"Flobecq","BE",3142,50.733333,3.733333
"Floreffe","BE",7480,50.433333,4.783333
"Florennes","BE",10723,50.25,4.616667
"Florenville","BE",5464,49.7,5.3
"Frameries","BE",20598,50.4,3.9
"Galmaarden","BE",7939,50.75,3.966667
"Gavere","BE",11888,50.933333,3.666667
"Gedinne","BE",4416,49.983333,4.933333
"Geel","BE",34697,51.166667,5
"Geer","BE",2682,50.666667,5.166667
"Geetbets","BE",5813,50.883333,5.116667
"Gembloux","BE",21676,50.566667,4.683333
"Genappe","BE",14266,50.6,4.45
"Genk","BE",63666,50.966667,5.5
"Gent","BE",231493,51.05,3.716667
"Geraardsbergen","BE",30807,50.766667,3.866667
"Gerpinnes","BE",11977,50.333333,4.516667
"Gesves","BE",6150,50.4,5.066667
"Gingelom","BE",7930,50.75,5.116667
"Gistel","BE",11084,51.166667,2.95
"Glabbeek","BE",5070,50.866667,4.95
"Gooik","BE",8957,50.8,4.116667
"Gouvy","BE",4706,50.185,5.941111
"Grez-Doiceau","BE",12367,50.733333,4.7
"Grimbergen","BE",33561,50.933333,4.383333
"Grobbendonk","BE",10724,51.2,4.716667
"Haacht","BE",13541,50.983333,4.633333
"Haaltert","BE",17129,50.9,4
"Habay","BE",7704,49.733333,5.616667
"Halen","BE",8548,50.95,5.1
"Halle","BE",34479,50.733333,4.233333
"Hamme","BE",22891,51.1,4.133333
"Hamoir","BE",3500,50.433333,5.533333
"Hamois","BE",6662,50.333333,5.133333
"Hannut","BE",14129,50.666667,5.083333
"Harelbeke","BE",25978,50.85,3.3
"Hasselt","BE",69222,50.933333,5.333333
"Hastière","BE",5147,50.216667,4.833333
"Havelange","BE",4790,50.383333,5.233333
"Heers","BE",6689,50.75,5.283333
"Heist-op-den-Berg","BE",37873,51.083333,4.716667
"Hemiksem","BE",9504,51.15,4.35
"Hensies","BE",6390,50.433333,3.666667
"Herbeumont","BE",1612,49.783333,5.233333
"Herentals","BE",25912,51.183333,4.833333
"Herent","BE",19218,50.9,4.666667
"Herenthout","BE",8379,51.15,4.766667
"Herk-de-Stad","BE",11566,50.933333,5.166667
"Herne","BE",6459,50.716667,4.033333
"Héron","BE",4305,50.55,5.083333
"Herselt","BE",13493,51.05,4.883333
"Herstal","BE",36503,50.666667,5.633333
"Herstappe","BE",93,50.733333,5.416667
"Herve","BE",16544,50.633333,5.8
"Herzele","BE",16523,50.883333,3.883333
"Hoegaarden","BE",6110,50.783333,4.9
"Hoeilaart","BE",10272,50.766667,4.466667
"Hoeselt","BE",9265,50.85,5.483333
"Holsbeek","BE",9094,50.916667,4.75
"Hooglede","BE",9900,50.983333,3.083333
"Hoogstraten","BE",18524,51.4,4.766667
"Hotton","BE",4969,50.266667,5.45
"Houffalize","BE",4614,50.133333,5.783333
"Houthulst","BE",8951,50.983333,2.95
"Houyet","BE",4505,50.183333,5.016667
"Hove","BE",7968,51.15,4.466667
"Huldenberg","BE",9137,50.783333,4.583333
"Hulshout","BE",9198,51.083333,4.783333
"Huy","BE",19973,50.516667,5.233333
"Ichtegem","BE",13582,51.1,3
"Ieper","BE",35089,50.85,2.883333
"Incourt","BE",4395,50.7,4.783333
"Ingelmunster","BE",10603,50.916667,3.25
"Ittre","BE",6014,50.65,4.266667
"Izegem","BE",26382,50.916667,3.2
"Jabbeke","BE",13488,51.183333,3.083333
"Jalhay","BE",7688,50.566667,5.966667
"Jodoigne","BE",11930,50.716667,4.866667
"Juprelle","BE",8354,50.716667,5.533333
"Jurbise","BE",9483,50.533333,3.933333
"Kalmthout","BE",17485,51.383333,4.466667
"Kampenhout","BE",10784,50.95,4.55
"Kapellen","BE",26410,51.316667,4.433333
"Kapelle-op-den-Bos","BE",8859,51.016667,4.366667
"Kaprijke","BE",6114,51.216667,3.6
"Kasterlee","BE",17765,51.25,4.95
"Keerbergen","BE",12363,51,4.616667
"Kinrooi","BE",11946,51.15,5.75
"Knesselare","BE",7889,51.133333,3.416667
"Knokke-Heist","BE",33781,51.35,3.266667
"Koekelare","BE",8317,51.083333,2.966667
"Koksijde","BE",21027,51.1,2.65
"Kontich","BE",20290,51.133333,4.45
"Kortemark","BE",11937,51.033333,3.033333
"Kortenaken","BE",7374,50.916667,5.066667
"Kortenberg","BE",17774,50.883333,4.533333
"Kortessem","BE",8042,50.866667,5.366667
"Kortrijk","BE",73879,50.833333,3.266667
"Kraainem","BE",12815,50.866667,4.466667
"Kruibeke","BE",14815,51.166667,4.316667
"Kruishoutem","BE",8179,50.9,3.516667
"Kuurne","BE",12638,50.85,3.283333
"Laarne","BE",11600,51.033333,3.85
"La Bruyère","BE",8194,50.283333,4.583333
"La Hulpe","BE",7415,50.733333,4.483333
"La Louvière","BE",76668,50.466667,4.183333
"Lanaken","BE",24771,50.883333,5.65
"Landen","BE",14458,50.75,5.083333
"La Roche-en-Ardenne","BE",4200,50.183333,5.583333
"Lebbeke","BE",17372,51,4.133333
"Ledegem","BE",9102,50.85,3.116667
"Lede","BE",16813,50.966667,3.983333
"Léglise","BE",3865,49.8,5.533333
"Lendelede","BE",5393,50.883333,3.233333
"Lennik","BE",8818,50.8,4.15
"Lens","BE",3902,50.55,3.9
"Leopoldsburg","BE",14149,51.116667,5.25
"Lessines","BE",17687,50.716667,3.833333
"Leuven","BE",92892,50.883333,4.7
"Libin","BE",4609,49.983333,5.25
"Lichtervelde","BE",8169,51.033333,3.15
"Liedekerke","BE",11980,50.866667,4.083333
"Liège","BE",182597,50.633333,5.566667
"Lierneux","BE",3332,50.283333,5.8
"Lille","BE",15466,51.233333,4.833333
"Limbourg","BE",5612,50.616667,5.933333
"Lincent","BE",2884,50.716667,5.033333
"Linkebeek","BE",4823,50.766667,4.333333
"Lint","BE",7982,51.133333,4.5
"Lobbes","BE",5467,50.35,4.25
"Lochristi","BE",19696,51.1,3.833333
"Lokeren","BE",37567,51.1,3.983333
"Lommel","BE",31993,51.233333,5.3
"Londerzeel","BE",17274,51,4.3
"Lontzen","BE",4862,50.683333,6
"Lovendegem","BE",9272,51.1,3.6
"Lubbeek","BE",13574,50.883333,4.833333
"Lummen","BE",13689,50.983333,5.2
"Maaseik","BE",23684,51.1,5.8
"Maasmechelen","BE",36251,50.816667,5.666667
"Machelen","BE",12252,50.916667,4.433333
"Maldegem","BE",22092,51.216667,3.45
"Malmédy","BE",11514,50.416667,6.033333
"Manage","BE",22196,50.5,4.216667
"Manhay","BE",3128,50.3,5.666667
"Marche-en-Famenne","BE",16856,50.2,5.333333
"Marchin","BE",5063,50.466667,5.233333
"Martelange","BE",1440,49.833333,5.733333
"Mechelen","BE",77531,51.033333,4.466667
"Meerhout","BE",9346,51.133333,5.083333
"Meise","BE",18497,50.933333,4.333333
"Meix-devant-Virton","BE",2637,49.6,5.483333
"Melle","BE",10687,51,3.8
"Menen","BE",31916,50.8,3.116667
"Merbes-le-Château","BE",3999,50.316667,4.15
"Merchtem","BE",14660,50.966667,4.233333
"Merelbeke","BE",22047,51,3.75
"Merksplas","BE",7963,51.366667,4.866667
"Mesen","BE",975,50.766667,2.9
"Messancy","BE",7144,49.6,5.816667
"Mettet","BE",12014,50.316667,4.666667
"Meulebeke","BE",10948,50.95,3.283333
"Middelkerke","BE",17789,51.183333,2.816667
"Modave","BE",3825,50.45,5.3
"Moerbeke","BE",5855,51.166667,3.933333
"Mol","BE",32659,51.183333,5.1
"Momignies","BE",5183,50.033333,4.166667
"Mons","BE",91277,50.45,3.933333
"Mont-Saint-Guibert","BE",6557,50.633333,4.616667
"Moorslede","BE",10720,50.883333,3.066667
"Morlanwelz","BE",18233,50.45,4.233333
"Mortsel","BE",24525,51.166667,4.466667
"Mouscron","BE",52069,50.733333,3.216667
"Musson","BE",4225,49.566667,5.7
"Namur","BE",106284,50.466667,4.866667
"Nandrin","BE",5480,50.5,5.416667
"Nassogne","BE",5081,50.133333,5.35
"Nazareth","BE",10890,50.966667,3.6
"Neerpelt","BE",16122,51.216667,5.416667
"Neufchâteau","BE",6416,49.833333,5.433333
"Nevele","BE",11153,51.033333,3.55
"Niel","BE",8656,51.116667,4.333333
"Nieuwerkerken","BE",6466,50.866667,5.183333
"Nieuwpoort","BE",10845,51.133333,2.75
"Nijlen","BE",20792,51.166667,4.65
"Ninove","BE",34795,50.833333,4.016667
"Nivelles","BE",24149,50.6,4.333333
"Ohey","BE",4324,50.433333,5.133333
"Olen","BE",11070,51.15,4.85
"Olne","BE",3836,50.583333,5.75
"Onhaye","BE",3014,50.25,4.833333
"Oosterzele","BE",13151,50.95,3.8
"Oostkamp","BE",21489,51.15,3.233333
"Oostrozebeke","BE",7489,50.916667,3.333333
"Opglabbeek","BE",9452,51.05,5.583333
"Opwijk","BE",12045,50.966667,4.183333
"Oreye","BE",3373,50.733333,5.366667
"Ostend","BE",69011,51.216667,2.916667
"Oudenaarde","BE",27935,50.85,3.6
"Oudenburg","BE",8752,51.183333,3
"Oud-Heverlee","BE",10533,50.833333,4.666667
"Oud-Turnhout","BE",12354,51.316667,4.983333
"Ouffet","BE",2477,50.433333,5.466667
"Oupeye","BE",23594,50.7,5.65
"Overijse","BE",23486,50.766667,4.533333
"Overpelt","BE",13344,51.216667,5.416667
"Paliseul","BE",5037,49.9,5.133333
"Pecq","BE",5302,50.683333,3.333333
"Peer","BE",15551,51.133333,5.466667
"Pepingen","BE",4261,50.75,4.15
"Pepinster","BE",9530,50.566667,5.816667
"Péruwelz","BE",16647,50.516667,3.583333
"Perwez","BE",7340,50.616667,4.816667
"Philippeville","BE",8051,50.2,4.533333
"Pittem","BE",6589,51,3.266667
"Plombières","BE",9596,50.733333,5.95
"Pont-à-Celles","BE",15909,50.5,4.35
"Poperinge","BE",19537,50.85,2.716667
"Profondeville","BE",11401,50.383333,4.866667
"Putte","BE",15276,51.066667,4.633333
"Puurs","BE",15944,51.083333,4.283333
"Quaregnon","BE",18491,50.433333,3.85
"Quiévrain","BE",6560,50.4,3.683333
"Raeren","BE",9925,50.683333,6.116667
"Ranst","BE",17405,51.2,4.55
"Ravels","BE",13560,51.366667,5
"Remicourt","BE",5050,50.683333,5.333333
"Rendeux","BE",2320,50.233333,5.5
"Retie","BE",10069,51.266667,5.066667
"Riemst","BE",15809,50.8,5.6
"Rijkevorsel","BE",10606,51.35,4.766667
"Rixensart","BE",21616,50.716667,4.533333
"Rochefort","BE",11978,50.166667,5.216667
"Roeselare","BE",56016,50.95,3.133333
"Ronse","BE",24204,50.75,3.6
"Rotselaar","BE",15007,50.95,4.716667
"Rouvroy","BE",1946,49.533333,5.5
"Ruiselede","BE",5129,51.05,3.4
"Rumes","BE",4918,50.55,3.3
"Rumst","BE",14521,51.083333,4.416667
"Sainte-Ode","BE",2310,50.083333,5.533333
"Saint-Ghislain","BE",22500,50.45,3.816667
"Saint-Hubert","BE",5538,50.016667,5.383333
"Saint-Léger","BE",3092,49.616667,5.65
"Saint-Nicolas","BE",22586,50.633333,5.533333
"Schelle","BE",7675,51.133333,4.333333
"Schilde","BE",20373,51.233333,4.566667
"Schoten","BE",33622,51.25,4.5
"Seneffe","BE",11025,50.516667,4.25
"Seraing","BE",60737,50.6,5.483333
"Silly","BE",7887,50.65,3.916667
"Sint-Amands","BE",7653,51.05,4.2
"Sint-Genesius-Rode","BE",17990,50.75,4.35
"Sint-Gillis-Waas","BE",17658,51.216667,4.133333
"Sint-Katelijne-Waver","BE",19487,51.066667,4.533333
"Sint-Laureins","BE",6657,51.25,3.516667
"Sint-Lievens-Houtem","BE",9146,50.916667,3.85
"Sint-Martens-Latem","BE",8303,51.016667,3.633333
"Sint-Niklaas","BE",69010,51.166667,4.133333
"Sint-Pieters-Leeuw","BE",30446,50.783333,4.233333
"Sint-Truiden","BE",37859,50.8,5.2
"Soignies","BE",24869,50.583333,4.066667
"Sombreffe","BE",7452,50.516667,4.6
"Somme-Leuze","BE",4532,50.333333,5.366667
"Soumagne","BE",15237,50.616667,5.75
"Spa","BE",10756,50.5,5.866667
"Sprimont","BE",12945,50.5,5.666667
"Stabroek","BE",17294,51.333333,4.366667
"Staden","BE",10786,50.983333,3.016667
"Stavelot","BE",6646,50.383333,5.933333
"Steenokkerzeel","BE",10566,50.916667,4.516667
"Stekene","BE",16989,51.2,4.033333
"Stoumont","BE",2970,50.416667,5.8
"Tellin","BE",2353,50.083333,5.216667
"Temse","BE",26054,51.133333,4.216667
"Tenneville","BE",2510,50.1,5.533333
"Ternat","BE",14569,50.866667,4.183333
"Tervuren","BE",20623,50.816667,4.516667
"Tessenderlo","BE",16574,51.066667,5.083333
"Theux","BE",11587,50.533333,5.816667
"Thuin","BE",14682,50.333333,4.283333
"Tielt","BE",19299,51,3.316667
"Tienen","BE",31743,50.8,4.95
"Tinlot","BE",2236,50.483333,5.366667
"Tintigny","BE",3538,49.683333,5.516667
"Tongeren","BE",29816,50.783333,5.466667
"Torhout","BE",18933,51.066667,3.1
"Tournai","BE",67720,50.6,3.383333
"Tremelo","BE",13721,50.983333,4.7
"Trooz","BE",7559,50.566667,5.683333
"Tubize","BE",21859,50.683333,4.2
"Turnhout","BE",39654,51.316667,4.95
"Vaux-sur-Sûre","BE",4581,49.916667,5.583333
"Verlaine","BE",3600,50.6,5.316667
"Verviers","BE",52824,50.583333,5.866667
"Veurne","BE",11983,51.066667,2.666667
"Vielsalm","BE",7291,50.284722,5.918611
"Villers-la-Ville","BE",9592,50.583333,4.533333
"Villers-le-Bouillet","BE",6059,50.583333,5.266667
"Vilvoorde","BE",36955,50.933333,4.433333
"Virton","BE",11259,49.566667,5.533333
"Visé","BE",17054,50.733333,5.7
"Vorselaar","BE",7238,51.2,4.766667
"Vosselaar","BE",10317,51.316667,4.883333
"Waarschoot","BE",7762,51.15,3.6
"Waasmunster","BE",10460,51.1,4.083333
"Wachtebeke","BE",6911,51.166667,3.866667
"Waimes","BE",6661,50.416667,6.116667
"Walcourt","BE",17501,50.25,4.416667
"Walhain","BE",5992,50.616667,4.7
"Wanze","BE",12918,50.533333,5.216667
"Waregem","BE",35896,50.883333,3.416667
"Waremme","BE",13737,50.683333,5.25
"Wasseiges","BE",2471,50.616667,5
"Waterloo","BE",28910,50.716667,4.383333
"Wavre","BE",32112,50.716667,4.616667
"Welkenraedt","BE",9006,50.65,5.966667
"Wellen","BE",6804,50.85,5.316667
"Wellin","BE",2937,50.083333,5.116667
"Wemmel","BE",14406,50.916667,4.3
"Wervik","BE",17340,50.783333,3.033333
"Westerlo","BE",22579,51.083333,4.916667
"Wetteren","BE",22930,51,3.883333
"Wevelgem","BE",30954,50.8,3.166667
"Wezembeek-Oppem","BE",13245,50.85,4.483333
"Wichelen","BE",11014,51,3.983333
"Wielsbeke","BE",8828,50.9,3.366667
"Wijnegem","BE",8932,51.233333,4.533333
"Willebroek","BE",22808,51.066667,4.366667
"Wingene","BE",12887,51.066667,3.266667
"Wommelgem","BE",11917,51.2,4.516667
"Wuustwezel","BE",18117,51.383333,4.6
"Yvoir","BE",8169,50.333333,4.883333
"Zandhoven","BE",12306,51.216667,4.65
"Zaventem","BE",28188,50.883333,4.466667
"Zedelgem","BE",21968,51.15,3.133333
"Zele","BE",20236,51.066667,4.033333
"Zelzate","BE",11901,51.2,3.816667
"Zemst","BE",21096,50.983333,4.466667
"Zingem","BE",6588,50.9,3.65
"Zoersel","BE",20642,51.266667,4.7
"Zomergem","BE",8158,51.116667,3.55
"Zonhoven","BE",19922,50.983333,5.35
"Zonnebeke","BE",11581,50.866667,2.983333
"Zottegem","BE",24434,50.866667,3.8
"Zoutleeuw","BE",7897,50.833333,5.1
"Zuienkerke","BE",2736,51.266667,3.166667
"Zulte","BE",14670,50.916667,3.433333
"Zutendaal","BE",6962,50.933333,5.566667
"Zwevegem","BE",23358,50.8,3.333333
"Zwijndrecht","BE",18249,51.216667,4.333333
"Banfora","BF",63883,10.6333333,-4.7666667
"Batié","BF",6525,9.8833333,-2.9166667
"Bobo Dioulasso","BF",370809,11.2,-4.3
"Bogandé","BF",9916,12.9713889,-0.1436111
"Boromo","BF",13240,11.75,-2.9333333
"Boulsa","BF",17623,12.6675,-0.5758333
"Boussé","BF",11093,13.1,-3.3833333
"Dano","BF",11224,11.15,-3.0666667
"Dédougou","BF",47235,12.4666667,-3.4666667
"Diapaga","BF",24302,12.0708333,1.7888889
"Diébougou","BF",12814,10.9666667,-3.25
"Djibo","BF",22821,14.1022222,-1.6305556
"Dori","BF",27554,14.0333333,-0.0333333
"Gaoua","BF",7300,10.2991667,-3.2508333
"Garango","BF",29076,11.8,-0.5505556
"Gayéri","BF",2004,12.6497222,0.4930556
"Gorom-Gorom","BF",6743,14.4438889,-0.2361111
"Goulouré","BF",6719,12.2305556,-1.9288889
"Gourcy","BF",17982,13.2166667,-2.35
"Houndé","BF",23617,11.5,-3.5166667
"Kaya","BF",39130,13.0916667,-1.0844444
"Kokologo","BF",25958,12.1897222,-1.8855556
"Kombissiri","BF",19180,12.0655556,-1.3375
"Kongoussi","BF",26338,13.3258333,-1.5347222
"Koudougou","BF",86965,12.25,-2.3666667
"Koupéla","BF",19850,12.1794444,-0.3516667
"Léo","BF",21151,11.1,-2.1
"Manga","BF",15269,11.6636111,-1.0730556
"Nouna","BF",21144,12.7333333,-3.8666667
"Orodara","BF",18635,10.9491667,-4.9341667
"Ouagadougou","BF",1031330,12.3702778,-1.5247222
"Ouahigouya","BF",61439,13.5833333,-2.4166667
"Ouargaye","BF",30726,11.5033333,0.0572222
"Pitmoaga","BF",8041,12.2397222,-1.8766667
"Pô","BF",21003,11.1697222,-1.145
"Réo","BF",24616,12.3166667,-2.4666667
"Sapouy","BF",3862,11.5544444,-1.7736111
"Sindou","BF",3942,10.6666667,-5.1666667
"Solenzo","BF",10451,12.1833333,-4.0833333
"Tenkodogo","BF",37123,11.78,-0.3697222
"Toma","BF",9926,12.65,-4.4166667
"Tougan","BF",17702,13.0666667,-3.0666667
"Yako","BF",23080,12.9666667,-2.2666667
"Ziniaré","BF",12783,12.5822222,-1.2983333
"Zorgo","BF",19789,12.2488889,-0.6158333
"Ahtopol","BG",857,42.1,27.95
"Ajtos","BG",21177,42.7,27.25
"Alfatar","BG",1941,43.95,27.2833333
"Antonovo","BG",1950,43.15,26.1666667
"Ardino","BG",3497,41.5833333,25.1333333
"Asenovgrad","BG",50735,42.0166667,24.8666667
"Balgarovo","BG",2344,42.6166667,27.3
"Bankja","BG",8104,42.7,23.1333333
"Bansko","BG",8412,41.8394444,23.5
"Batak","BG",4103,41.95,24.2166667
"Batanovci","BG",2532,42.5997222,22.9505556
"Belene","BG",10401,43.65,25.1166667
"Belica","BG",3334,41.9569444,23.5725
"Belogradcik","BG",4865,43.6272222,22.6836111
"Beloslav","BG",7817,43.1833333,27.7
"Belovo","BG",4533,42.2166667,24.0166667
"Berkovica","BG",13574,43.2361111,23.1258333
"Bjala","BG",1753,43.45,25.7333333
"Bjala","BG",10284,42.8833333,27.8833333
"Blagoevgrad","BG",69547,42.0166667,23.1
"Bobosevo","BG",1528,42.1597222,23.0163889
"Bobovdol","BG",7222,42.3697222,23.0172222
"Boljarovo","BG",1474,42.15,26.8166667
"Borovo","BG",2520,43.5,25.8
"Botevgrad","BG",20497,42.9,23.7833333
"Bracigovo","BG",4600,42.0166667,24.3666667
"Bregovo","BG",2629,44.1516667,22.6425
"Breznik","BG",4150,42.7413889,22.8980556
"Brezovo","BG",1920,42.35,25.0833333
"Buhovo","BG",3069,42.7666667,23.5666667
"Burgas","BG",188554,42.5,27.4666667
"Carevo","BG",5023,42.1666667,27.85
"Cepelare","BG",5342,41.7333333,24.6833333
"Cirpan","BG",17622,42.2,25.3333333
"Dalgopol","BG",4911,43.05,27.35
"Debelec","BG",4396,43.0333333,25.6166667
"Devin","BG",6766,41.7333333,24.4
"Dimitrovgrad","BG",42827,42.05,25.6
"Dimovo","BG",1145,43.7416667,22.7269444
"Dobric","BG",92309,43.5666667,27.8333333
"Dolna Banja","BG",4471,42.3,23.7666667
"Dolna Mitropolija","BG",3746,43.4666667,24.5333333
"Dolni Dabnik","BG",5561,43.4,24.4333333
"Dospat","BG",2391,41.65,24.1666667
"Dragoman","BG",3196,42.9188889,22.9316667
"Drjanovo","BG",8017,42.9827778,25.4922222
"Dulovo","BG",6463,43.8166667,27.15
"Dupnica","BG",38656,42.2666667,23.1166667
"Dve Mogili","BG",4561,43.6,25.8666667
"Elena","BG",6171,42.9333333,25.8833333
"Elhovo","BG",11723,42.1666667,26.5666667
"Elin Pelin","BG",4699,42.6666667,23.6
"Etropole","BG",11024,42.8333333,24
"Gabrovo","BG",61109,42.8747222,25.3341667
"Galabovo","BG",9080,42.1333333,25.85
"Godec","BG",4551,43.015,23.0441667
"Gramada","BG",1812,43.8344444,22.6586111
"Guljanci","BG",4135,43.6333333,24.7
"Gurkovo","BG",2933,42.6666667,25.7333333
"Gurkovo","BG",2933,42.6666667,25.8
"Harmanli","BG",20065,41.9333333,25.9
"Haskovo","BG",78865,41.9402778,25.5694444
"Ihtiman","BG",11554,42.4333333,23.8166667
"Iskar","BG",4109,43.3833333,27.4833333
"Isperih","BG",8276,43.7166667,26.8333333
"Ivajlovgrad","BG",4451,41.5333333,26.1333333
"Jablanica","BG",2662,43.0313889,24.1127778
"Jakoruda","BG",5931,42.0252778,23.6841667
"Jambol","BG",75290,42.4833333,26.5
"Kalofer","BG",3736,42.6166667,24.9833333
"Kameno","BG",5133,42.5666667,27.3
"Kaolinovo","BG",1489,43.6166667,27.1166667
"Karlovo","BG",24464,42.6333333,24.8
"Karnobat","BG",19902,42.65,26.9833333
"Kaspican","BG",3211,43.3,27.1833333
"Kavarna","BG",10626,43.4333333,28.3333333
"Kazanlak","BG",50336,42.6166667,25.4
"Kermen","BG",2172,42.5,26.25
"Kilifarevo","BG",2484,42.9833333,25.6333333
"Kjustendil","BG",47315,42.2838889,22.6911111
"Klisura","BG",1708,42.7,24.45
"Kneza","BG",9201,43.5,24.0833333
"Kocerinovo","BG",2431,42.0833333,23.0666667
"Kojnare","BG",3678,43.35,24.1333333
"Koprivstica","BG",2618,42.6333333,24.35
"Kostenec","BG",9660,42.2666667,23.8166667
"Kostinbrod","BG",11239,42.8166667,23.2166667
"Kotel","BG",7117,42.8833333,26.45
"Kozloduj","BG",10602,43.7833333,23.7333333
"Kresna","BG",3756,41.7333333,23.15
"Kresna","BG",3756,41.8,23.1833333
"Kricim","BG",8478,42.05,24.4666667
"Krivodol","BG",2646,43.3744444,23.4844444
"Krumovgrad","BG",4478,41.4666667,25.65
"Kubrat","BG",7327,43.8,26.5
"Kula","BG",3393,43.8877778,22.5213889
"Laki","BG",2720,41.85,24.8166667
"Letnica","BG",3980,43.3116667,25.0733333
"Levski","BG",13203,43.3666667,25.1333333
"Ljaskovec","BG",9000,43.1111111,25.7283333
"Ljubimec","BG",7623,41.8333333,26.0833333
"Lom","BG",24906,43.8138889,23.2361111
"Lovec","BG",39788,43.1333333,24.7166667
"Loznica","BG",2512,43.9666667,27.9166667
"Lukovit","BG",9020,43.2,24.1666667
"Madan","BG",7179,41.5,24.95
"Magliz","BG",3465,42.6,25.55
"Malko Tarnovo","BG",2920,41.9833333,27.5333333
"Melnik","BG",251,41.5166667,23.4
"Mericleri","BG",2233,42.1333333,25.5
"Mezdra","BG",8667,43.15,23.7
"Momcilgrad","BG",6974,41.5333333,25.4166667
"Montana","BG",44982,43.4125,23.225
"Nedelino","BG",4676,41.45,25.0833333
"Nesebar","BG",5864,42.65,27.7333333
"Nikolaevo","BG",2834,43.3166667,25.9833333
"Nikopol","BG",4884,43.7,24.9
"Nova Zagora","BG",24034,42.4833333,26.0166667
"Novi Iskar","BG",13194,42.8,23.35
"Novi Pazar","BG",13017,43.35,27.2
"Obzor","BG",1864,42.8166667,27.8833333
"Omurtag","BG",8858,43.1,26.4166667
"Opaka","BG",3353,43.45,26.1666667
"Orjahovo","BG",4464,43.7333333,23.9666667
"Panagjuriste","BG",18755,42.5,24.1833333
"Pavlikeni","BG",12129,43.2427778,25.3219444
"Pazardzik","BG",76254,42.2,24.3333333
"Pernik","BG",82185,42.6,23.0333333
"Perustica","BG",5248,42.05,24.55
"Pestera","BG",19161,42.0333333,24.3
"Petric","BG",29956,41.4,23.2166667
"Pirdop","BG",7923,42.7,24.1833333
"Plackovci","BG",2098,42.8166667,25.4666667
"Pleven","BG",132542,43.4166667,24.6166667
"Pliska","BG",1115,43.3666667,27.1166667
"Plovdiv","BG",332088,42.15,24.75
"Pomorie","BG",12941,42.55,27.65
"Popovo","BG",18836,43.35,26.2333333
"Pordim","BG",2711,43.3833333,24.85
"Pravec","BG",5071,42.8833333,23.9166667
"Primorsko","BG",1807,42.2666667,27.7666667
"Provadija","BG",14253,43.1833333,27.4333333
"Radnevo","BG",13157,42.3,25.9333333
"Radomir","BG",14971,42.5444444,22.9577778
"Rakitovo","BG",8029,41.9833333,24.0833333
"Rakovski","BG",16009,42.3,24.9666667
"Razgrad","BG",31791,43.5333333,26.5166667
"Razlog","BG",12347,41.8902778,23.4791667
"Rila","BG",2936,42.1333333,23.1333333
"Roman","BG",2329,43.15,23.9166667
"Rudozem","BG",4041,41.4833333,24.85
"Ruse","BG",157519,43.8563889,25.9708333
"Sabla","BG",3603,43.5333333,28.5333333
"Sadovo","BG",2461,42.1333333,24.9333333
"Saedinenie","BG",6363,42.2666667,24.55
"Samokov","BG",26582,42.3333333,23.55
"Sandanski","BG",26282,41.5666667,23.2833333
"Senovo","BG",1481,43.65,26.3666667
"Septemvri","BG",8741,42.2166667,24.1
"Sevlievo","BG",23574,43.0258333,25.1136111
"Silistra","BG",38166,44.1166667,27.2666667
"Simeonovgrad","BG",7509,42.0333333,25.8333333
"Simitli","BG",7275,41.8833333,23.1166667
"Sipka","BG",1520,42.7166667,25.3333333
"Slavjanovo","BG",5160,43.4666667,24.8666667
"Sliven","BG",94252,42.6858333,26.3291667
"Smoljan","BG",31870,41.5852778,24.6919444
"Sofia","BG",1062065,42.6833333,23.3166667
"Sopot","BG",10141,43.0166667,24.4166667
"Sozopol","BG",3548,42.4166667,27.7
"Sredec","BG",9362,42.3488889,27.1941667
"Stara Zagora","BG",137760,42.4327778,25.6419444
"Straldza","BG",5865,42.6,26.6833333
"Strazica","BG",5006,43.2333333,25.9666667
"Strelca","BG",4699,42.5,24.3166667
"Suhindol","BG",2407,43.1916667,25.1811111
"Sumen","BG",85394,43.2766667,26.9291667
"Sungurlare","BG",3441,42.7666667,26.7833333
"Suvorovo","BG",4514,43.3333333,27.6
"Svilengrad","BG",17378,41.7666667,26.2
"Svistov","BG",29762,43.6230556,25.3538889
"Svoge","BG",7093,42.9666667,23.35
"Tervel","BG",7019,43.75,27.4
"Teteven","BG",10697,42.9166667,24.2666667
"Topolovgrad","BG",5824,42.0833333,26.3333333
"Tran","BG",2608,42.8352778,22.6516667
"Trastenik","BG",5627,43.5166667,24.4666667
"Trjavna","BG",10180,42.8666667,25.5
"Trojan","BG",22431,42.8833333,24.7166667
"Tutrakan","BG",9472,44.05,26.6166667
"Tvardica","BG",6434,42.7,25.9
"Ugarcin","BG",2896,43.1,24.4166667
"Varna","BG",307952,43.2166667,27.9166667
"Veliki Preslav","BG",8669,43.1666667,26.8166667
"Velingrad","BG",24129,42.0166667,24
"Vetovo","BG",4835,43.7,26.2666667
"Vidin","BG",50315,43.99,22.8725
"Vraca","BG",48995,43.21,23.5625
"Zavet","BG",2979,43.7666667,26.6666667
"Zemen","BG",2145,42.4788889,22.7491667
"Zlatarica","BG",2847,43.05,25.9
"Zlatica","BG",4881,42.7166667,24.1333333
"Zlatograd","BG",7673,41.3833333,25.1
"Manama","BH",147097,26.2361111,50.5830556
"Sitrah","BH",37690,26.1547222,50.6205556
"Bubanza","BI",12728,-3.0833333,29.3944444
"Bujumbura","BI",330539,-3.3761111,29.36
"Bururi","BI",19740,-3.9511111,29.6166667
"Cankuzo","BI",6585,-3.2194444,30.5527778
"Cibitoke","BI",14220,-2.8861111,29.1236111
"Gitega","BI",23168,-3.425,29.9333333
"Karuzi","BI",10705,-3.1013889,30.1647222
"Kayanza","BI",19443,-2.9222222,29.6222222
"Kirundo","BI",6084,-2.5847222,30.0972222
"Makamba","BI",19642,-4.1347222,29.805
"Muramvya","BI",18039,-3.2680556,29.6166667
"Muyinga","BI",71095,-2.8494444,30.3361111
"Mwaro","BI",4924,-3.5263889,29.7027778
"Ngozi","BI",21506,-2.9083333,29.8277778
"Rumonge","BI",6074,-3.9722222,29.4388889
"Rutana","BI",20894,-3.9191667,29.9936111
"Ruyigi","BI",38459,-3.4763889,30.2486111
"Abomey","BJ",82158,7.1833333,1.9833333
"Abomey-Calavi","BJ",385823,6.45,2.35
"Allada","BJ",20094,6.65,2.15
"Aplahoué","BJ",19862,6.9333333,1.6833333
"Athiémé","BJ",13585,6.5833333,1.6666667
"Banikoara","BJ",22487,11.3,2.4333333
"Bassila","BJ",23616,9.0166667,1.6666667
"Bembèrèkè","BJ",24006,10.2288889,2.6652778
"Bétérou","BJ",13108,9.2,2.2666667
"Bohicon","BJ",125116,7.2,2.0666667
"Comé","BJ",29208,6.4,1.8833333
"Cotonou","BJ",690584,6.35,2.4333333
"Cové","BJ",38566,7.2333333,2.3
"Djougou","BJ",202834,9.705,1.6669444
"Dogbo","BJ",41312,6.8166667,1.7833333
"Kandi","BJ",109705,11.1341667,2.9386111
"Kétou","BJ",22341,7.3666667,2.6
"Lokossa","BJ",86987,6.6333333,1.7166667
"Malanville","BJ",37117,11.8613889,3.3858333
"Natitingou","BJ",80896,10.3066667,1.375
"Nikki","BJ",54009,9.9338889,3.2044444
"Ouidah","BJ",83506,6.3666667,2.0833333
"Parakou","BJ",163759,9.35,2.6166667
"Pobé","BJ",32983,6.9666667,2.6833333
"Sakété","BJ",30111,6.7166667,2.6666667
"Savalou","BJ",30187,7.9333333,1.9666667
"Savé","BJ",75973,8.0333333,2.4833333
"Tchaourou","BJ",20971,8.8833333,2.6
"Hamilton","BM",902,32.2941667,-64.7838889
"Saint George","BM",1802,32.3816667,-64.6780556
"Abapó","BO",2419,-18.8333333,-63.4666667
"Achacachi","BO",8447,-16.05,-68.6833333
"Aiquile","BO",8225,-18.1666667,-65.1666667
"Arani","BO",3906,-17.5666667,-65.7666667
"Ascensión","BO",14431,-15.7,-63.0833333
"Atocha","BO",1833,-20.9333333,-66.2333333
"Bermejo","BO",28287,-22.65,-64.3666667
"Betanzos","BO",4847,-19.5505556,-65.4533333
"Boyuibe","BO",3075,-20.4166667,-63.2833333
"Buena Vista","BO",4283,-17.45,-63.6666667
"Camargo","BO",4715,-20.65,-65.2166667
"Camiri","BO",27971,-20.05,-63.5166667
"Capinota","BO",5157,-17.7166667,-66.2333333
"Caracollo","BO",4708,-17.65,-67.1666667
"Caranavi","BO",14915,-15.8166667,-67.55
"Challapata","BO",8016,-18.9,-66.7666667
"Charagua","BO",3026,-19.8,-63.2166667
"Chimoré","BO",5147,-16.9833333,-65.1333333
"Chulumani","BO",2953,-16.4,-67.5166667
"Cliza","BO",8655,-17.6,-65.9333333
"Cobija","BO",26583,-11.0333333,-68.7333333
"Cochabamba","BO",900440,-17.3833333,-66.15
"Colomi","BO",3923,-17.35,-65.8666667
"Colquechaca","BO",1706,-18.6666667,-66.0166667
"Colquiri","BO",3934,-17.4166667,-67.1333333
"Comarapa","BO",4446,-17.9,-64.4833333
"Concepción","BO",6901,-16.4333333,-60.9
"Copacabana","BO",4508,-16.15,-69.0833333
"Coripata","BO",2107,-16.3,-67.6
"Coroico","BO",2361,-16.1833333,-67.7333333
"Cotoca","BO",18349,-17.75,-62.9833333
"El Carmen","BO",14297,-17.85,-63.2166667
"El Torno","BO",15544,-17.9833333,-63.3833333
"Entre Ríos","BO",2685,-21.5333333,-64.2
"Eucaliptus","BO",2373,-17.5833333,-67.5166667
"Guanay","BO",3915,-15.4833333,-67.8833333
"Guayaramerín","BO",36010,-10.8,-65.3833333
"Huanuni","BO",15492,-18.2666667,-66.85
"Irpa Irpa","BO",2968,-17.7166667,-66.2666667
"Jorochito","BO",4013,-18.05,-63.4333333
"La Bélgica","BO",5504,-17.55,-63.2166667
"La Guardia","BO",10259,-17.9,-63.3333333
"Lahuachaca","BO",3235,-17.3666667,-67.6666667
"La Paz","BO",812819,-16.5,-68.15
"Limoncito","BO",3622,-18.0166667,-63.4
"Llallagua","BO",28070,-18.4166667,-66.6333333
"Los Negros","BO",3046,-17.7333333,-63.4333333
"Machacamarca","BO",2045,-18.1666667,-67.0333333
"Mairana","BO",4298,-18.1166667,-63.9333333
"Mapiri","BO",2598,-15.25,-68.1666667
"Mineros","BO",14386,-17.1166667,-63.2333333
"Mizque","BO",2911,-17.9333333,-65.3166667
"Monteagudo","BO",8290,-19.8166667,-63.9833333
"Montero","BO",88623,-17.3333333,-63.25
"Oruro","BO",208687,-17.9833333,-67.15
"Padilla","BO",2920,-19.3,-64.3
"Pailón","BO",9304,-17.65,-62.75
"Patacamaya","BO",12261,-17.2333333,-67.9166667
"Poopó","BO",1720,-18.3666667,-66.9666667
"Portachuelo","BO",11486,-17.35,-63.4
"Potosí","BO",141254,-19.5836111,-65.7530556
"Puerto Pailas","BO",2675,-17.65,-62.8
"Puerto Quijarro","BO",10393,-17.7833333,-57.7666667
"Puerto Suárez","BO",12254,-18.95,-57.8
"Punata","BO",15195,-17.55,-65.8333333
"Quime","BO",2405,-16.9833333,-67.2166667
"Reyes","BO",7376,-14.3166667,-67.3833333
"Riberalta","BO",74018,-10.9833333,-66.1
"Roboré","BO",9883,-18.3333333,-59.75
"Rurrenabaque","BO",11750,-14.4666667,-67.5666667
"Samaipata","BO",3250,-18.15,-63.8666667
"San Borja","BO",19641,-14.8166667,-66.85
"San Carlos","BO",4180,-17.4,-63.75
"San Ignacio","BO",23570,-16.3666667,-60.95
"San Javier","BO",7025,-16.3333333,-62.6333333
"San Joaquín","BO",3557,-18.45,-59.55
"San José","BO",9749,-17.85,-60.75
"San Julian","BO",7706,-17.7833333,-62.8666667
"San Lorenzo","BO",2921,-21.4333333,-64.7833333
"San Matías","BO",6352,-16.3666667,-58.4
"San Miguel","BO",4906,-16.7,-61.0166667
"San Pedro","BO",2990,-18.2833333,-59.8166667
"San Rafael","BO",2384,-16.75,-60.5666667
"San Ramón","BO",4390,-13.2833333,-64.7166667
"San Ramón","BO",6422,-14.4833333,-63.15
"Santa Bárbara","BO",2434,-20.9166667,-66.05
"Santa Rita","BO",2444,-17.9666667,-63.35
"Santa Rosa","BO",4459,-14.1666667,-66.8833333
"Santa Rosa","BO",4575,-16.7833333,-61.8
"Sipe Sipe","BO",3777,-17.45,-66.3833333
"Sorata","BO",2190,-15.7666667,-68.6333333
"Sucre","BO",224846,-19.0430556,-65.2591667
"Tarabuco","BO",2428,-19.1666667,-64.9166667
"Tarata","BO",8045,-17.6166667,-66.0166667
"Tarija","BO",159275,-21.5166667,-64.75
"Tipuani","BO",2585,-15.55,-68
"Totoral","BO",1645,-18.5166667,-66.8666667
"Trinidad","BO",84264,-14.8333333,-64.9
"Tupiza","BO",22234,-21.45,-65.7166667
"Uncia","BO",5142,-18.45,-66.6166667
"Urubichá","BO",3269,-15.3833333,-62.95
"Uyuni","BO",10294,-20.4666667,-66.8333333
"Villamontes","BO",18762,-21.25,-63.5
"Villazón","BO",30254,-22.1,-65.6
"Viloco","BO",1900,-16.95,-67.55
"Warnes","BO",22038,-17.5,-63.1666667
"Yacuiba","BO",82808,-22.0333333,-63.6833333
"Abadiânia","BR",7062,-16.1,-48.8
"Abaeté","BR",20371,-19.15,-45.45
"Abaetetuba","BR",78052,-1.7,-48.9
"Abreu e Lima","BR",81960,-7.9,-34.883333
"Acajutiba","BR",14349,-11.666667,-38.016667
"Acará","BR",12803,-1.95,-48.183333
"Acaraú","BR",28389,-2.883333,-40.116667
"Acari","BR",9159,-6.516667,-36.633333
"Acopiara","BR",24562,-6.1,-39.45
"Açu","BR",36126,-5.577222,-36.9075
"Açucena","BR",14506,-19.066667,-42.533333
"Adamantina","BR",31079,-21.683333,-51.066667
"Afogados da Ingàzeira","BR",25060,-7.75,-37.65
"Afonso Bezerra","BR",6947,-5.498056,-36.509167
"Afonso Cláudio","BR",13543,-20.083333,-41.133333
"Afuá","BR",7031,-0.166667,-50.383333
"Agrestina","BR",14453,-8.45,-35.95
"Água Branca","BR",5161,-9.283333,-37.916667
"Água Branca","BR",13912,-5.883333,-42.633333
"Aguaí","BR",27503,-22.066667,-46.966667
"Água Preta","BR",16444,-8.7,-35.516667
"Águas Belas","BR",22563,-9.116667,-37.116667
"Águas de Lindóia","BR",18806,-22.483333,-46.65
"Águas Formosas","BR",11512,-17.083333,-40.95
"Águas Vermelhas","BR",16410,-15.75,-41.466667
"Agudos","BR",30808,-22.466667,-49
"Águia Branca","BR",2554,-18.983333,-40.733333
"Aimorés","BR",19133,-19.5,-41.066667
"Alagoa Grande","BR",16406,-7.05,-35.633333
"Alagoa Nova","BR",9182,-7.066667,-35.766667
"Alagoinha","BR",7474,-6.933333,-35.55
"Alagoinhas","BR",122692,-12.116667,-38.433333
"Alcântara","BR",5655,-2.4,-44.4
"Alegre","BR",19758,-20.766667,-41.533333
"Alegrete","BR",77540,-29.766667,-55.766667
"Além Paraíba","BR",33907,-21.866667,-42.683333
"Alenquer","BR",26291,-1.933333,-54.766667
"Alexandria","BR",9769,-6.416667,-38.016667
"Alfenas","BR",71407,-21.433333,-45.95
"Alfredo Chaves","BR",6422,-20.633333,-40.75
"Alhandra","BR",10788,-7.433333,-34.9
"Aliança","BR",17329,-7.583333,-35.216667
"Almeirim","BR",20464,-1.533333,-52.566667
"Almenara","BR",29333,-16.183333,-40.7
"Almirante Tamandaré","BR",89500,-25.3,-49.316667
"Alpinópolis","BR",13286,-20.866667,-46.383333
"Alta Floresta","BR",40468,-9.9,-55.9
"Altamira","BR",70890,-3.2,-52.2
"Alterosa","BR",9277,-21.25,-46.133333
"Altinho","BR",11913,-8.483333,-36.066667
"Altinópolis","BR",14616,-21.025278,-47.374444
"Alto Araguaia","BR",8780,-17.316667,-53.2
"Alto Longá","BR",4435,-5.25,-42.2
"Altônia","BR",11242,-23.933333,-53.9
"Alto Paraguai","BR",6149,-14.5,-56.516667
"Alto Paraná","BR",10888,-23.083333,-52.366667
"Alto Piquiri","BR",10039,-24.016667,-53.466667
"Altos","BR",28769,-5.05,-42.466667
"Alvarães","BR",5527,-3.2,-64.833333
"Álvares Machado","BR",21642,-22.133333,-51.5
"Alvinópolis","BR",12068,-20.1,-43.05
"Alvorada","BR",10232,-12.47,-49.082222
"Amambaí","BR",20261,-23.083333,-55.216667
"Amapá","BR",6256,2.05,-50.8
"Amaraji","BR",16660,-8.4,-35.45
"Amarante","BR",8828,-6.233333,-42.833333
"Amarante do Maranhão","BR",11510,-5.6,-46.75
"Amargosa","BR",22531,-13.033333,-39.6
"América Dourada","BR",14018,-11.466667,-41.433333
"Americana","BR",196026,-22.740278,-47.334444
"Américo Brasiliense","BR",34332,-21.716667,-48.116667
"Amontada","BR",13520,-3.383333,-39.833333
"Amparo","BR",41498,-22.7,-46.783333
"Ampère","BR",14275,-25.916667,-53.466667
"Anadia","BR",9574,-9.7,-36.3
"Anagé","BR",3762,-14.6,-41.133333
"Anajatuba","BR",5627,-3.266667,-44.616667
"Ananás","BR",8874,-6.360278,-47.91
"Ananindeua","BR",433956,-1.366667,-48.383333
"Anápolis","BR",319592,-16.333333,-48.966667
"Anastácio","BR",18817,-20.516667,-55.8
"Andirá","BR",20758,-23.0488,-50.2276
"Andradas","BR",26773,-22.066667,-46.566667
"Andradina","BR",52407,-20.9,-51.383333
"Andrelândia","BR",10079,-21.733333,-44.3
"Angatuba","BR",14476,-23.483333,-48.416667
"Angicos","BR",7729,-5.666389,-36.600833
"Angra dos Reis","BR",153637,-23,-44.3
"Anicuns","BR",15685,-16.466667,-49.966667
"Anori","BR",8064,-3.783333,-61.633333
"Antonina","BR",16152,-25.4314,-48.7184
"Aparecida","BR",34237,-22.8418,-45.2287
"Aparecida do Taboado","BR",17332,-20.083333,-51.083333
"Apiaí","BR",18260,-24.511926,-48.844671
"Apodi","BR",16757,-5.65,-37.8
"Apucarana","BR",107086,-23.55,-51.483333
"Aquidabã","BR",10596,-10.283333,-37.033333
"Aquidauana","BR",35304,-20.466667,-55.8
"Aquiraz","BR",65117,-3.9,-38.366667
"Aracaju","BR",490184,-10.916667,-37.066667
"Aracati","BR",44294,-4.566667,-37.766667
"Araçatuba","BR",170028,-21.2,-50.416667
"Araci","BR",15089,-11.333333,-38.95
"Aracoiaba","BR",13425,-4.383333,-38.816667
"Araçoiaba","BR",13095,-7.8,-35.05
"Araçoiaba da Serra","BR",15395,-23.5049,-47.6185
"Aracruz","BR",58272,-19.816667,-40.266667
"Araçuaí","BR",22005,-16.866667,-42.066667
"Aragarças","BR",16781,-15.916667,-52.25
"Araguaçu","BR",7603,-12.894167,-49.773056
"Araguaína","BR",114959,-7.16,-48.0575
"Araguari","BR",96567,-18.633333,-48.183333
"Araguatins","BR",17106,-5.600278,-47.933056
"Araioses","BR",8667,-2.89,-41.903611
"Arapiraca","BR",166566,-9.75,-36.65
"Arapongas","BR",97513,-23.383333,-51.45
"Araquari","BR",35691,-26.3692,-48.7221
"Arara","BR",7641,-6.833333,-35.75
"Araranguá","BR",43445,-28.933333,-49.483333
"Araraquara","BR",185191,-21.783333,-48.166667
"Araras","BR",107465,-22.366667,-47.383333
"Arari","BR",16777,-3.466667,-44.783333
"Araripe","BR",11860,-7.2,-40.133333
"Araripina","BR",38570,-7.55,-40.566667
"Araruama","BR",109638,-22.883333,-42.333333
"Araruna","BR",7667,-6.533333,-35.733333
"Arauá","BR",4747,-11.266667,-37.616667
"Araucária","BR",111303,-25.583333,-49.416667
"Araxá","BR",82597,-19.583333,-46.916667
"Arcos","BR",33356,-20.283333,-45.533333
"Arcoverde","BR",57164,-8.416667,-36.916667
"Areado","BR",10689,-21.35,-46.15
"Areal","BR",11041,-22.228889,-43.106944
"Areia","BR",13825,-6.966667,-35.7
"Areia Branca","BR",18372,-4.953889,-37.132222
"Areia Branca","BR",7414,-10.766667,-37.316667
"Arenápolis","BR",9060,-14.433333,-56.816667
"Arês","BR",7231,-6.183333,-35.15
"Arinos","BR",10078,-15.916667,-46.066667
"Aripuanã","BR",27043,-9.166667,-60.633333
"Ariquemes","BR",58102,-9.933333,-63.066667
